sno,,station,tot,sbi,sarea,mday,lat,lng,ar,sareaen,snaen,aren,bemp,act,srcUpdateTime,updateTime,infoTime,infoDate
500101001,YouBike2.0_,捷運科技大樓站,28,4,大安區,2023/5/8 10:09,25.02605,121.5436,復興南路二段235號前,Daan Dist.,YouBike2.0_MRT Technology Bldg. Sta.,No.235， Sec. 2， Fuxing S. Rd.,24,1,2023/5/8 10:09,2023/5/8 10:09,2023/5/8 10:09,2023/5/8
500101002,YouBike2.0_,復興南路二段273號前,21,1,大安區,2023/5/8 09:04,25.02565,121.54357,復興南路二段273號西側,Daan Dist.,YouBike2.0_No.273， Sec. 2， Fuxing S. Rd.,No.273， Sec. 2， Fuxing S. Rd. (West),20,1,2023/5/8 10:09,2023/5/8 10:09,2023/5/8 09:04,2023/5/8
500101003,YouBike2.0_,國北教大實小東側門,16,7,大安區,2023/5/8 10:05,25.02429,121.54124,和平東路二段96巷7號,Daan Dist.,YouBike2.0_NTUE Experiment Elementary School (East),No. 7， Ln. 96， Sec. 2， Heping E. Rd,9,1,2023/5/8 10:09,2023/5/8 10:09,2023/5/8 10:05,2023/5/8
500101004,YouBike2.0_,和平公園東側,11,3,大安區,2023/5/8 09:44,25.02351,121.54282,和平東路二段118巷33號,Daan Dist.,YouBike2.0_Heping Park (East),No. 33， Ln. 118， Sec. 2， Heping E. Rd,8,1,2023/5/8 10:09,2023/5/8 10:09,2023/5/8 09:44,2023/5/8
500101005,YouBike2.0_,辛亥復興路口西北側,16,0,大安區,2023/5/8 10:06,25.02153,121.54299,復興南路二段368號,Daan Dist.,YouBike2.0_Xinhai Fuxing Rd. Intersection (Northwest),No. 368， Sec. 2， Fuxing S. Rd.,16,1,2023/5/8 10:09,2023/5/8 10:09,2023/5/8 10:06,2023/5/8
500101006,YouBike2.0_,復興南路二段280號前,11,2,大安區,2023/5/8 09:54,25.02429,121.54328,復興南路二段280號,Daan Dist.,YouBike2.0_No. 280， Sec. 2， Fuxing S. Rd.,No. 280， Sec. 2， Fuxing S. Rd.,9,1,2023/5/8 10:09,2023/5/8 10:09,2023/5/8 09:54,2023/5/8
500101007,YouBike2.0_,復興南路二段340巷口,11,2,大安區,2023/5/8 10:09,25.02253,121.54326,復興南路二段342號,Daan Dist.,YouBike2.0_Ln. 340， Sec. 2， Fuxing S. Rd.,No. 342， Sec. 2， Fuxing S. Rd.,9,1,2023/5/8 10:09,2023/5/8 10:09,2023/5/8 10:09,2023/5/8
500101008,YouBike2.0_,新生南路三段52號前,17,0,大安區,2023/5/8 09:59,25.02112,121.53407,新生南路三段52號,Daan Dist.,YouBike2.0_No. 52， Sec. 3， Xinsheng S. Rd.,No. 52， Sec. 3， Xinsheng S. Rd.,17,1,2023/5/8 10:09,2023/5/8 10:09,2023/5/8 09:59,2023/5/8
500101009,YouBike2.0_,新生南路三段66號前,16,1,大安區,2023/5/8 09:21,25.01976,121.53384,新生南路三段66號東側,Daan Dist.,YouBike2.0_No. 66， Sec. 3， Xinsheng S. Rd.,No. 66， Sec. 3， Xinsheng S. Rd. (East),15,1,2023/5/8 10:09,2023/5/8 10:09,2023/5/8 09:21,2023/5/8
500101010,YouBike2.0_,新生南路三段82號前,20,13,大安區,2023/5/8 10:09,25.01894,121.53361,新生南路三段82號,Daan Dist.,YouBike2.0_No. 82， Sec. 3， Xinsheng S. Rd.,No. 82， Sec. 3， Xinsheng S. Rd.,7,1,2023/5/8 10:09,2023/5/8 10:09,2023/5/8 10:09,2023/5/8
500101012,YouBike2.0_,辛亥路一段30號前,8,0,大安區,2023/5/8 09:52,25.01986,121.52982,辛亥路一段30號,Daan Dist.,YouBike2.0_No. 30， Sec. 1， Xinhai Rd.,No. 30， Sec. 1， Xinhai Rd.,8,1,2023/5/8 10:09,2023/5/8 10:09,2023/5/8 09:52,2023/5/8
500101013,YouBike2.0_,和平復興路口西北側,9,1,大安區,2023/5/8 09:52,25.02543,121.54332,復興南路二段236號,Daan Dist.,YouBike2.0_Heping Fuxing Rd. Intersection (Northwest),No. 236， Sec. 2， Fuxing S. Rd.,8,1,2023/5/8 10:09,2023/5/8 10:09,2023/5/8 09:52,2023/5/8
500101014,YouBike2.0_,羅斯福路三段311號前,11,5,大安區,2023/5/8 10:04,25.01717,121.53202,羅斯福路三段311號,Daan Dist.,YouBike2.0_No. 311， Sec. 3， Roosevelt Rd.,No. 311， Sec. 3， Roosevelt Rd.,4,1,2023/5/8 10:09,2023/5/8 10:09,2023/5/8 10:04,2023/5/8
500101015,YouBike2.0_,大安運動中心停車場,14,9,大安區,2023/5/8 09:55,25.020348,121.546446,敦南街76巷28號,Daan Dist.,YouBike2.0_Taipei Da-an Sports Center Parking lot,No. 28， Ln. 76， Dunnan St.,5,1,2023/5/8 10:09,2023/5/8 10:09,2023/5/8 09:55,2023/5/8
500101016,YouBike2.0_,羅斯福路三段245號前,8,1,大安區,2023/5/8 09:52,25.01927,121.52989,羅斯福路三段245號,Daan Dist.,YouBike2.0_No. 245， Sec. 3， Roosevelt Rd.,No. 245， Sec. 3， Roosevelt Rd.,7,1,2023/5/8 10:09,2023/5/8 10:09,2023/5/8 09:52,2023/5/8
500101018,YouBike2.0_,溫州公園,5,0,大安區,2023/5/8 10:08,25.01895,121.53156,羅斯福路三段283巷11號,Daan Dist.,YouBike2.0_Wenzhou Park,No. 11， Ln. 283， Sec. 3， Roosevelt Rd.,5,1,2023/5/8 10:09,2023/5/8 10:09,2023/5/8 10:08,2023/5/8
500101019,YouBike2.0_,和平臥龍街口,15,5,大安區,2023/5/8 09:49,25.024461,121.546705,臥龍街1號,Daan Dist.,YouBike2.0_Heping Wolong St. Intersection,No. 1， Wolong St.,10,1,2023/5/8 10:09,2023/5/8 10:09,2023/5/8 09:49,2023/5/8
500101020,YouBike2.0_,溫州停車場,5,3,大安區,2023/5/8 09:12,25.02093,121.5331,新生南路三段54巷/溫州街口,Daan Dist.,YouBike2.0_Wenzhou Parking Lot,Ln. 54， Sec. 3， Xinsheng S. Rd. & Wenzhou St. Intersection,2,1,2023/5/8 10:09,2023/5/8 10:09,2023/5/8 09:12,2023/5/8
500101021,YouBike2.0_,銘傳國小側門,7,0,大安區,2023/5/8 08:41,25.01385,121.53549,羅斯福路四段21號旁天橋下,Daan Dist.,YouBike2.0_Taipei Municipal MingChuan Elementary School(Side Gate),No. 21， Sec. 4， Roosevelt Rd.,7,1,2023/5/8 10:09,2023/5/8 10:09,2023/5/8 08:41,2023/5/8
500101022,YouBike2.0_,捷運公館站(2號出口),99,1,大安區,2023/5/8 10:09,25.01491,121.53438,捷運公館站(2號出口)外側,Daan Dist.,YouBike2.0_MRT Gongguan Sta. (Exit 2),MRT Gongguan Sta. (Exit 2),97,1,2023/5/8 10:09,2023/5/8 10:09,2023/5/8 10:09,2023/5/8
500101023,YouBike2.0_,第二學生活動中心,27,0,大安區,2023/5/8 09:57,25.01244,121.53661,羅斯福路四段107號(西南側),Daan Dist.,YouBike2.0_2nd Student Activity Center,No. 107， Sec. 4， Roosevelt Rd.(Southwest),26,1,2023/5/8 10:09,2023/5/8 10:09,2023/5/8 09:57,2023/5/8
500101024,YouBike2.0_,臺灣科技大學正門,30,22,大安區,2023/5/8 09:59,25.01451,121.54142,基隆路四段43號(臺灣科技大學正門旁小側門靠田徑場),Daan Dist.,YouBike2.0_NTUST(Main Gate),No. 43， Sec. 4， Keelung Rd.,8,1,2023/5/8 10:09,2023/5/8 10:09,2023/5/8 09:59,2023/5/8
500101025,YouBike2.0_,臺灣科技大學側門,99,19,大安區,2023/5/8 10:05,25.01295,121.53973,基隆路四段73巷與基隆路口,Daan Dist.,YouBike2.0_NTUST(Side Gate),Ln. 73， Sec. 4， Keelung Rd. Intersection,80,1,2023/5/8 10:09,2023/5/8 10:09,2023/5/8 10:05,2023/5/8
500101026,YouBike2.0_,公館公園,15,6,大安區,2023/5/8 07:35,25.01137,121.54062,羅斯福路四段113巷基隆路四段41巷口,Daan Dist.,YouBike2.0_Gongguan Park,Ln. 113， Sec. 4， Roosevelt Rd. & Ln. 41， Sec. 4， Keelung Rd. Intersection,9,1,2023/5/8 10:09,2023/5/8 10:09,2023/5/8 07:35,2023/5/8
500101027,YouBike2.0_,臺灣科技大學後門,39,1,大安區,2023/5/8 10:09,25.01182,121.54165,基隆路四段41巷68弄臺科帆船大樓旁,Daan Dist.,YouBike2.0_NTUST(Back Gate),Aly. 68， Ln. 41， Sec. 4， Keelung Rd.,38,1,2023/5/8 10:09,2023/5/8 10:09,2023/5/8 10:09,2023/5/8
500101028,YouBike2.0_,臺大醫學院附設癌醫中心,20,14,大安區,2023/5/8 10:09,25.01426,121.54382,基隆路三段155巷57號西側,Daan Dist.,YouBike2.0_NTU Cancer Center,No. 57， Ln. 155， Sec. 3， Keelung Rd.(West),6,1,2023/5/8 10:09,2023/5/8 10:09,2023/5/8 10:09,2023/5/8
500101029,YouBike2.0_,臺大環研大樓,15,6,大安區,2023/5/8 10:01,25.01234,121.54503,芳蘭路/基隆路三段155巷口,Daan Dist.,YouBike2.0_NTU Environment Research Building,Fanglan Rd & Ln. 155， Sec. 3， Keelung Rd. Intersection,9,1,2023/5/8 10:09,2023/5/8 10:09,2023/5/8 10:01,2023/5/8
500101030,YouBike2.0_,臺大永齡生醫工程館,34,11,大安區,2023/5/8 10:06,25.0136,121.54656,芳蘭路51號西北側,Daan Dist.,YouBike2.0_NTU Yonglin Biomedical Engineering Hall,No. 51， Fanglan Rd.(Northwest),23,1,2023/5/8 10:09,2023/5/8 10:09,2023/5/8 10:06,2023/5/8
500101031,YouBike2.0_,臺大男七舍前,20,8,大安區,2023/5/8 10:08,25.01537,121.54698,長興街/長興街80巷口西側,Daan Dist.,YouBike2.0_NTU 7th Men's Dorm,Ln. 80， Changxing St. Intersection(West),12,1,2023/5/8 10:09,2023/5/8 10:09,2023/5/8 10:08,2023/5/8
500101032,YouBike2.0_,臺大男一舍前,61,32,大安區,2023/5/8 10:09,25.01637,121.54535,長興街50號西北側,Daan Dist.,YouBike2.0_NTU 1st Men's Dorm,No. 50， Changxing St.(Northwest),29,1,2023/5/8 10:09,2023/5/8 10:09,2023/5/8 10:09,2023/5/8
500101033,YouBike2.0_,臺大男六舍前,46,28,大安區,2023/5/8 10:01,25.01664,121.5452,大安區長興街31號,Daan Dist.,YouBike2.0_NTU 6th Men's Dorm,No. 31， Changxing St.,18,1,2023/5/8 10:09,2023/5/8 10:09,2023/5/8 10:01,2023/5/8
500101034,YouBike2.0_,臺大動物醫院前,18,9,大安區,2023/5/8 10:09,25.01576,121.54291,基隆路三段155巷/基隆路四段口,Daan Dist.,YouBike2.0_NTU Veterinary Hospital,Ln. 155， Sec. 3， Keelung Rd. Intersection,9,1,2023/5/8 10:09,2023/5/8 10:09,2023/5/8 10:09,2023/5/8
500101035,YouBike2.0_,臺大土木研究大樓前,24,9,大安區,2023/5/8 10:06,25.01787,121.5476,辛亥路三段188號,Daan Dist.,YouBike2.0_NTU Civil Engineering Research Building,No. 188， Sec. 3， Xinhai Rd.,14,1,2023/5/8 10:09,2023/5/8 10:09,2023/5/8 10:06,2023/5/8
500101036,YouBike2.0_,臺大萬才館前,20,3,大安區,2023/5/8 09:43,25.02032,121.54497,臺大萬才館北側,Daan Dist.,YouBike2.0_NTU Wan Tsai Research Hall,NTU Wan Tsai Research Hall,17,1,2023/5/8 10:09,2023/5/8 10:09,2023/5/8 09:43,2023/5/8
500101037,YouBike2.0_,臺大國青大樓宿舍前,20,3,大安區,2023/5/8 10:08,25.02076,121.54432,辛亥路三段30號西北側,Daan Dist.,YouBike2.0_NTU Guo - Ching Building,No. 30， Sec. 3， Xinhai Rd.(Northwest),17,1,2023/5/8 10:09,2023/5/8 10:09,2023/5/8 10:08,2023/5/8
500101038,YouBike2.0_,臺大社科院圖書館前,27,4,大安區,2023/5/8 10:09,25.02101,121.54284,辛亥路與復興南路口西南側,Daan Dist.,YouBike2.0_NTU College of social Sciences Building,Xinhai Fuxing Rd. Intersection (Southwest),23,1,2023/5/8 10:09,2023/5/8 10:09,2023/5/8 10:09,2023/5/8
500101039,YouBike2.0_,臺大法人語言訓練中心前,28,11,大安區,2023/5/8 09:56,25.02104,121.54081,臺大法人語言訓練中心北側,Daan Dist.,YouBike2.0_NTU Language Training & Testing Center,NTU Language Training & Testing Center(North),17,1,2023/5/8 10:09,2023/5/8 10:09,2023/5/8 09:56,2023/5/8
500101040,YouBike2.0_,臺大綜合體育館停車場前,25,2,大安區,2023/5/8 09:42,25.0222,121.53626,臺大綜合體育館北側,Daan Dist.,YouBike2.0_NTU Sports Center Car Park,NTU Sports Center(North),23,1,2023/5/8 10:09,2023/5/8 10:09,2023/5/8 09:42,2023/5/8
500101041,YouBike2.0_,辛亥新生路口東南側,41,12,大安區,2023/5/8 10:01,25.02218,121.53474,辛亥新生路口東南側,Daan Dist.,YouBike2.0_Xinhai Xinsheng Rd. Intersection (Southeast),Xinhai Xinsheng Rd. Intersection (Southeast),29,1,2023/5/8 10:09,2023/5/8 10:09,2023/5/8 10:01,2023/5/8
500101042,YouBike2.0_,基隆長興路口東側,15,7,大安區,2023/5/8 10:02,25.01727,121.54471,基隆長興路口東側,Daan Dist.,YouBike2.0_Keelung Changxing Rd. Intersection(East),Keelung Changxing Rd. Intersection(East),8,1,2023/5/8 10:09,2023/5/8 10:09,2023/5/8 10:02,2023/5/8
500101091,YouBike2.0_,國北教大側門南側,25,6,大安區,2023/5/8 09:41,25.022864,121.546622,敦南街51號,Daan Dist.,YouBike2.0_NTUE Side Gate(South),No. 51， Dunnan St.,19,1,2023/5/8 10:09,2023/5/8 10:09,2023/5/8 09:41,2023/5/8
500101092,YouBike2.0_,和平實小東北側,13,6,大安區,2023/5/8 09:26,25.021641,121.54704,敦南街73號,Daan Dist.,YouBike2.0_Heping Experiment Elementary School (Northeast),No. 73， Dunnan St.,7,1,2023/5/8 10:09,2023/5/8 10:09,2023/5/8 09:26,2023/5/8
500101093,YouBike2.0_,大安區健康服務中心,15,4,大安區,2023/5/8 08:58,25.021469,121.544069,辛亥路三段15號,Daan Dist.,YouBike2.0_Daan District Public Health Center,No. 15， Sec. 1， Xinhai Rd.,11,1,2023/5/8 10:09,2023/5/8 10:09,2023/5/8 08:58,2023/5/8
500101094,YouBike2.0_,辛亥泰順街口,20,2,大安區,2023/5/8 10:03,25.02193,121.53165,辛亥泰順街口東南側,Daan Dist.,YouBike2.0_Xinhai Taishun St. Intersection,Xinhai Taishun St. Intersection (Southeast),18,1,2023/5/8 10:09,2023/5/8 10:09,2023/5/8 10:03,2023/5/8
500101095,YouBike2.0_,芳和國中,28,4,大安區,2023/5/8 10:09,25.0189,121.55013,臥龍街170號(前),Daan Dist.,YouBike2.0_Fanghe Junior High School,No. 170， Wolong St.,24,1,2023/5/8 10:09,2023/5/8 10:09,2023/5/8 10:09,2023/5/8
500101097,YouBike2.0_,臥龍樂業街口,36,20,大安區,2023/5/8 09:51,25.01856,121.55558,臥龍街234-2號,Daan Dist.,YouBike2.0_Wolong Leye St. Intersection,No. 234-2， Wolong St.,16,1,2023/5/8 10:09,2023/5/8 10:09,2023/5/8 09:51,2023/5/8
500101098,YouBike2.0_,臥龍公園,14,7,大安區,2023/5/8 08:03,25.01623,121.55037,辛亥路三段223號西側,Daan Dist.,YouBike2.0_Wolong Park,No. 223， Sec. 3， Xinhai Rd. (West),7,1,2023/5/8 10:09,2023/5/8 10:09,2023/5/8 08:03,2023/5/8
500101099,YouBike2.0_,嘉興公園,44,26,大安區,2023/5/8 10:08,25.021,121.55211,樂業街101巷3號西北側,Daan Dist.,YouBike2.0_Jiaxing Park,No. 3， Ln. 101， Leye St. (Northwest),18,1,2023/5/8 10:09,2023/5/8 10:09,2023/5/8 10:08,2023/5/8
500101100,YouBike2.0_,捷運麟光站(2號出口),35,18,大安區,2023/5/8 10:03,25.0181,121.55929,和平東路三段420號東北側,Daan Dist.,YouBike2.0_MRT Linguang Sta. (Exit 2),No. 420， Sec. 3， Heping E. Rd. (Northeast),17,1,2023/5/8 10:09,2023/5/8 10:09,2023/5/8 10:03,2023/5/8
500101101,YouBike2.0_,捷運六張犁站,64,2,大安區,2023/5/8 10:08,25.02397,121.55266,和平東路三段410號,Daan Dist.,YouBike2.0_MRT Liuzhangli Sta.,No. 410， Sec. 3， Heping E. Rd.,62,1,2023/5/8 10:09,2023/5/8 10:09,2023/5/8 10:08,2023/5/8
500101102,YouBike2.0_,喬治工商,26,9,大安區,2023/5/8 10:06,25.02705,121.55551,基隆路二段166號,Daan Dist.,YouBike2.0_George Vocational High School of Taipei,No. 166， Sec. 2， Keelung Rd.,17,1,2023/5/8 10:09,2023/5/8 10:09,2023/5/8 10:06,2023/5/8
500101103,YouBike2.0_,法治公園,15,5,大安區,2023/5/8 09:09,25.02694,121.55325,通化街189號西側,Daan Dist.,YouBike2.0_Fazhi Park,No. 189， Tonghua St. (West),10,1,2023/5/8 10:09,2023/5/8 10:09,2023/5/8 09:09,2023/5/8
500101104,YouBike2.0_,捷運臺電大樓站(2號出口),15,0,大安區,2023/5/8 09:19,25.02021,121.52942,辛亥路一段/羅斯福路三段口北側(辛亥路側),Daan Dist.,YouBike2.0_MRT Taipower Building Sta. (Exit 2),Sec. 1， Xinhai Rd & Sec. 3， Roosevelt Rd (North),15,1,2023/5/8 10:09,2023/5/8 10:09,2023/5/8 09:19,2023/5/8
500101105,YouBike2.0_,和平金山路口,45,12,大安區,2023/5/8 10:05,25.02669,121.52529,和平東路一段/金山南路二段西南側,Daan Dist.,YouBike2.0_Sec. 1， Heping E. Rd & Sec. 2， Jinshan S. Rd Intersection,Sec. 1， Heping E. Rd & Sec. 2， Jinshan S. Rd Intersection (Southwest),33,1,2023/5/8 10:09,2023/5/8 10:09,2023/5/8 10:05,2023/5/8
500101107,YouBike2.0_,和平龍泉街口,34,15,大安區,2023/5/8 10:04,25.02638,121.52971,和平東路一段/龍泉街口西南側,Daan Dist.,YouBike2.0_Sec. 1， Heping E. Rd & Longquan St. Intersection,Sec. 1， Heping E. Rd & Longquan St. Intersection (Southwest),19,1,2023/5/8 10:09,2023/5/8 10:09,2023/5/8 10:04,2023/5/8
500101108,YouBike2.0_,和平泰順街口,9,2,大安區,2023/5/8 10:01,25.02621,121.53171,和平東路一段/泰順街口東南側,Daan Dist.,YouBike2.0_Sec. 1， Heping E. Rd & Taishun St  Intersection,Sec. 1， Heping E. Rd & Taishun St  Intersection (Southeast),7,1,2023/5/8 10:09,2023/5/8 10:09,2023/5/8 10:01,2023/5/8
500101109,YouBike2.0_,臺灣師範大學(圖書館),40,25,大安區,2023/5/8 10:09,25.0266,121.52973,和平東路一段129號前,Daan Dist.,YouBike2.0_National Taiwan Normal University (library),No. 129， Sec. 1， Heping E. Rd.,15,1,2023/5/8 10:09,2023/5/8 10:09,2023/5/8 10:09,2023/5/8
500101110,YouBike2.0_,捷運古亭站(6號出口),60,44,大安區,2023/5/8 10:09,25.0276,121.52217,羅斯福路二段41號前,Daan Dist.,YouBike2.0_MRT Guting Sta. (Exit 6),No. 41， Sec. 2， Roosevelt Rd,16,1,2023/5/8 10:09,2023/5/8 10:09,2023/5/8 10:09,2023/5/8
500101111,YouBike2.0_,捷運古亭站(5號出口),14,0,大安區,2023/5/8 09:43,25.02715,121.52293,和平東路一段19號前,Daan Dist.,YouBike2.0_MRT Guting Sta. (Exit 5),No. 19， Sec. 1， Heping E. Rd,14,1,2023/5/8 10:09,2023/5/8 10:09,2023/5/8 09:43,2023/5/8
500101113,YouBike2.0_,臺北市立圖書館(總館),45,19,大安區,2023/5/8 09:46,25.02895,121.5379,建國南路二段/建國南路二段151巷(橋下空間),Daan Dist.,YouBike2.0_Taipei Public library,Sec. 2， Jianguo S. Rd & Ln. 151， Sec. 2， Jianguo S. Rd (Under Bridge),26,1,2023/5/8 10:09,2023/5/8 10:09,2023/5/8 09:46,2023/5/8
500101114,YouBike2.0_,新生和平路口東北側,38,11,大安區,2023/5/8 10:03,25.02657,121.53515,新生南路二段與和平東路二段口東北側,Daan Dist.,YouBike2.0_Sec. 2， Xinsheng S. Rd & Sec. 2， Heping E. Rd Intersection,Sec. 2， Xinsheng S. Rd & Sec. 2， Heping E. Rd (Northeast),27,1,2023/5/8 10:09,2023/5/8 10:09,2023/5/8 10:03,2023/5/8
500101115,YouBike2.0_,建國和平路口西北側,44,31,大安區,2023/5/8 10:09,25.02606,121.53738,建國南路二段與和平東路二段口西北側,Daan Dist.,YouBike2.0_Sec. 2， Jianguo S. Rd & Sec. 2， Heping E. Rd Intersection,Sec. 2， Jianguo S. Rd & Sec. 2， Heping E. Rd. (Northwest),13,1,2023/5/8 10:09,2023/5/8 10:09,2023/5/8 10:09,2023/5/8
500101116,YouBike2.0_,金華公園,35,4,大安區,2023/5/8 10:05,25.02984,121.53107,金華街249號對面,Daan Dist.,YouBike2.0_Jinhua Park,No. 249， Jinhua St. (Opposite),31,1,2023/5/8 10:09,2023/5/8 10:09,2023/5/8 10:05,2023/5/8
500101117,YouBike2.0_,捷運東門站(3號出口),15,5,大安區,2023/5/8 08:40,25.03383,121.52815,信義路二段128號前,Daan Dist.,YouBike2.0_MRT Dongmen Sta. (Exit 3),No. 128， Sec. 2， Xinyi Rd.,10,1,2023/5/8 10:09,2023/5/8 10:09,2023/5/8 08:40,2023/5/8
500101118,YouBike2.0_,金甌女中,12,3,大安區,2023/5/8 09:46,25.03519,121.5245,信義路二段與杭州南路二段東南側,Daan Dist.,YouBike2.0_Jin'ou Girls High School,Sec. 2， Xinyi Rd. & Sec. 2， Hangzhou S. Rd. (Southeast),9,1,2023/5/8 10:09,2023/5/8 10:09,2023/5/8 09:46,2023/5/8
500101119,YouBike2.0_,金杭公園,20,15,大安區,2023/5/8 10:02,25.03325,121.52436,愛國東路21巷與杭州南路二段25巷口東南側,Daan Dist.,YouBike2.0_Jinhang Park,Ln. 21， Aiguo E. Rd. & Ln. 25， Sec. 2， Hangzhou S. Rd. Intersection (Southeast),5,1,2023/5/8 10:09,2023/5/8 10:09,2023/5/8 10:02,2023/5/8
500101120,YouBike2.0_,愛國金山路口,33,27,大安區,2023/5/8 09:15,25.03164,121.52661,愛國東路與杭州南路二段口西南側,Daan Dist.,YouBike2.0_Aiguo & Jinshan Rd. Intersection,Aiguo E. Rd. & Sec. 2， Hangzhou S. Rd. Intersection (Southwest),6,1,2023/5/8 10:09,2023/5/8 10:09,2023/5/8 09:15,2023/5/8
500101122,YouBike2.0_,敦化南路二段293巷口南側,14,8,大安區,2023/5/8 10:01,25.0237,121.54899,敦化南路二段293巷口南側,Daan Dist.,YouBike2.0_Ln. 293， Sec. 2， Dunhua S. Rd (South),Ln. 293， Sec. 2， Dunhua S. Rd. (South),6,1,2023/5/8 10:09,2023/5/8 10:09,2023/5/8 10:01,2023/5/8
500101123,YouBike2.0_,敦化基隆路口,29,29,大安區,2023/5/8 10:05,25.02215,121.54839,敦化南路二段218號,Daan Dist.,YouBike2.0_Sec. 2， Dunhua S. Rd & Sec. 2， Keelung Rd Intersection,No. 218， Sec. 2， Dunhua S. Rd,0,1,2023/5/8 10:09,2023/5/8 10:09,2023/5/8 10:05,2023/5/8
500101124,YouBike2.0_,安和路二段181巷口,17,3,大安區,2023/5/8 09:19,25.02721,121.54988,安和路二段185號,Daan Dist.,YouBike2.0_Ln. 181， Sec. 2， Anhe Rd,No185， Sec. 2， Anhe Rd,14,1,2023/5/8 10:09,2023/5/8 10:09,2023/5/8 09:19,2023/5/8
500101125,YouBike2.0_,臨江街夜市(通化街101巷口),30,9,大安區,2023/5/8 10:06,25.02952,121.55406,通化街111號,Daan Dist.,YouBike2.0_Linjiang St night market (Ln. 101， Tonghua St),No. 101， Tonghua St.,21,1,2023/5/8 10:09,2023/5/8 10:09,2023/5/8 10:06,2023/5/8
500101126,YouBike2.0_,臨江街夜市(基隆路),17,10,大安區,2023/5/8 10:05,25.02931,121.55721,基隆路二段108號,Daan Dist.,YouBike2.0_Linjiang St night market (Keelung Rd),No. 108， Sec. 2， Keelung Rd.,7,1,2023/5/8 10:09,2023/5/8 10:09,2023/5/8 10:05,2023/5/8
500101127,YouBike2.0_,台北科技大學億光大樓,46,34,大安區,2023/5/8 10:01,25.04177,121.53833,忠孝東路三段81號,Daan Dist.,YouBike2.0_National Taipei University of Technology (Everlight Building),No. 81， Sec. 3， Zhongxiao E. Rd.,12,1,2023/5/8 10:09,2023/5/8 10:09,2023/5/8 10:01,2023/5/8
500101128,YouBike2.0_,新生南路一段119巷口,33,23,大安區,2023/5/8 10:06,25.04003,121.53299,新生南路一段113號,Daan Dist.,YouBike2.0_Ln. 119， Sec. 1， Xinsheng S. Rd Intersection,No. 113， Ln. 119， Sec. 1， Xinsheng S. Rd.,10,1,2023/5/8 10:09,2023/5/8 10:09,2023/5/8 10:06,2023/5/8
500101129,YouBike2.0_,幸安國小(仁愛路),16,8,大安區,2023/5/8 09:15,25.03753,121.53523,仁愛路三段22號,Daan Dist.,YouBike2.0_Xing'an Elementary School (Ren'ai Rd),No. 22， Sec. 3， Ren'ai Rd.,8,1,2023/5/8 10:09,2023/5/8 10:09,2023/5/8 09:15,2023/5/8
500101130,YouBike2.0_,民榮公園,15,0,大安區,2023/4/20 07:22,25.03534,121.5354,建國南路一段304巷45號南側,Daan Dist.,YouBike2.0_Minrong Park,No. 45， Ln. 304， Sec. 1， Jianguo S. Rd. (South),15,0,2023/5/8 10:09,2023/5/8 10:09,2023/4/20 07:22,2023/4/20
500101131,YouBike2.0_,復興南路1段340巷口,38,25,大安區,2023/5/8 09:24,25.03701,121.54348,復興南路一段信義路三段147巷45弄口,Daan Dist.,YouBike2.0_Ln. 340， Sec. 1， Fuxing S. Rd Intersection,Sec. 1， Fuxing S. Rd & Aly. 45， Ln. 147， Sec. 3， Xinyi Rd Intersection.,13,1,2023/5/8 10:09,2023/5/8 10:09,2023/5/8 09:24,2023/5/8
500101132,YouBike2.0_,建國濟南路口,29,28,大安區,2023/5/8 10:01,25.03935,121.53828,建國南路一段/濟南路三段口(東南側),Daan Dist.,YouBike2.0_Sec. 1， Jianguo S. Rd & Sec. 3， Jinan Rd Intersection,Sec. 1， Jianguo S. Rd & Sec. 3， Jinan Rd Intersection. (Southeast),1,1,2023/5/8 10:09,2023/5/8 10:09,2023/5/8 10:01,2023/5/8
500101133,YouBike2.0_,捷運忠孝復興站(2號出口),43,21,大安區,2023/5/8 10:09,25.04035,121.5436,復興南路一段/仁愛路三段123巷13弄(西北側),Daan Dist.,YouBike2.0_MRT Zhongxiao Fuxing Sta (Exit 2),Sec. 1， Fuxing S. R & Aly. 13， Ln. 123， Sec. 3， Ren'ai Rd. (Northwest),22,1,2023/5/8 10:09,2023/5/8 10:09,2023/5/8 10:09,2023/5/8
500101134,YouBike2.0_,捷運大安站(4號出口),13,2,大安區,2023/5/8 10:06,25.0332,121.5439,信義路4段6號(前),Daan Dist.,YouBike2.0_MRT Da’an Sta (Exit 4),No. 6， Sec. 4， Xinyi Rd.,11,1,2023/5/8 10:09,2023/5/8 10:09,2023/5/8 10:06,2023/5/8
500101135,YouBike2.0_,捷運大安站(2號出口),22,8,大安區,2023/5/8 09:53,25.03358,121.54141,信義路3段143號(前),Daan Dist.,YouBike2.0_MRT Da’an Sta (Exit 2),No. 143， Sec. 3， Xinyi Rd.,14,1,2023/5/8 10:09,2023/5/8 10:09,2023/5/8 09:53,2023/5/8
500101136,YouBike2.0_,信義大安路口(信維大樓),12,5,大安區,2023/5/8 09:18,25.03317,121.54639,信義路四段74號(前),Daan Dist.,YouBike2.0_Sec. 4， Xinyi Rd & Da’an Rd Intersection (Xinwei Building),No. 74， Sec. 4， Xinyi Rd.,7,1,2023/5/8 10:09,2023/5/8 10:09,2023/5/8 09:18,2023/5/8
500101137,YouBike2.0_,龍門廣場,50,9,大安區,2023/5/8 10:05,25.04092,121.54825,敦化南路一段與敦化南路一段236巷口,Daan Dist.,YouBike2.0_Long Men Plaza,Sec. 1， Dunhua S. Rd & Ln. 236， Sec. 1， Dunhua S. Rd Intersection.,41,1,2023/5/8 10:09,2023/5/8 10:09,2023/5/8 10:05,2023/5/8
500101138,YouBike2.0_,仁愛安和路口,25,7,大安區,2023/5/8 10:08,25.03754,121.55285,仁愛路四段258號前,Daan Dist.,YouBike2.0_Sec. 4， Ren'ai Rd & Sec. 1， Anhe Rd Intersection,No. 74， Sec. 4， Ren'ai Rd.,18,1,2023/5/8 10:09,2023/5/8 10:09,2023/5/8 10:08,2023/5/8
500101139,YouBike2.0_,信義敦化路口,46,31,大安區,2023/5/8 10:03,25.03333,121.54977,信義路四段155號前,Daan Dist.,YouBike2.0_Sec. 4， Xinyi Rd & Sec. 1， Dunhua S. Rd Intersection,No. 155， Sec. 4， Xinyi Rd,14,1,2023/5/8 10:09,2023/5/8 10:09,2023/5/8 10:03,2023/5/8
500101140,YouBike2.0_,仁愛國中,25,8,大安區,2023/5/8 09:03,25.03706,121.55166,安和路一段75號(對面),Daan Dist.,YouBike2.0_Ren Ai Junior High School,No. 75， Sec. 1， Anhe Rd.,17,1,2023/5/8 10:09,2023/5/8 10:09,2023/5/8 09:03,2023/5/8
500101141,YouBike2.0_,捷運信義安和站(2號出口),26,10,大安區,2023/5/8 10:02,25.03304,121.55171,信義路四段188號前,Daan Dist.,YouBike2.0_MRT Xinyi Anhe Sta (Exit 2),No. 188， Sec. 4， Xinyi Rd,16,1,2023/5/8 10:09,2023/5/8 10:09,2023/5/8 10:02,2023/5/8
500101142,YouBike2.0_,八德市場,30,22,大安區,2023/5/8 09:49,25.04463,121.53665,市民大道三段170號,Daan Dist.,YouBike2.0_Bade Traditional Market,No. 170， Sec. 3， Civic Blvd.,8,1,2023/5/8 10:09,2023/5/8 10:09,2023/5/8 09:49,2023/5/8
500101143,YouBike2.0_,昌隆公園,16,5,大安區,2023/5/8 09:14,25.04448,121.53946,市民大道三段206號西側,Daan Dist.,YouBike2.0_Changlong Park,No. 206， Sec. 3， Civic Blvd. (West),11,1,2023/5/8 10:09,2023/5/8 10:09,2023/5/8 09:14,2023/5/8
500101144,YouBike2.0_,捷運大安森林公園站(2號出口),62,20,大安區,2023/5/8 10:09,25.03332,121.53435,捷運大安森林公園站(2號出口)西側,Daan Dist.,YouBike2.0_MRT Daan Park Sta. (Exit 2),MRT Daan Park Sta. (Exit 2) (West),42,1,2023/5/8 10:09,2023/5/8 10:09,2023/5/8 10:09,2023/5/8
500101145,YouBike2.0_,信義延吉街口,15,14,大安區,2023/5/8 09:56,25.03318,121.55725,信義路四段353號,Daan Dist.,YouBike2.0_Sec. 4，Xinyi Rd & Yanji St Intersection,No. 353， Sec. 4， Xinyi Rd.,1,1,2023/5/8 10:09,2023/5/8 10:09,2023/5/8 09:56,2023/5/8
500101146,YouBike2.0_,光信公園(光復南路456巷),15,6,大安區,2023/5/8 10:07,25.03513,121.5561,延吉街249號,Daan Dist.,YouBike2.0_Guangxin Park (Ln. 456， Guangfu S. Rd),No. 249， Yanji St.,9,1,2023/5/8 10:09,2023/5/8 10:09,2023/5/8 10:07,2023/5/8
500101147,YouBike2.0_,僑安地下停車場(2號出口)東南側,20,5,大安區,2023/5/8 10:08,25.0391,121.5569,光復南路290巷5號,Daan Dist.,YouBike2.0_Qiao An Dixia Parking (Exit 2) (Southeast),No. 5， Ln. 290， Guangfu S. Rd,15,1,2023/5/8 10:09,2023/5/8 10:09,2023/5/8 10:08,2023/5/8
500101148,YouBike2.0_,建國南路一段279巷口,32,24,大安區,2023/5/8 10:01,25.03635,121.53833,建國南路一段275號,Daan Dist.,YouBike2.0_Ln. 279， Sec. 1， Jianguo S. Rd Intersection,No. 275， Sec. 1， Jianguo S. Rd.,8,1,2023/5/8 10:09,2023/5/8 10:09,2023/5/8 10:01,2023/5/8
500101149,YouBike2.0_,捷運忠孝新生站(6號出口),15,0,大安區,2023/5/8 09:18,25.04091,121.53295,新生南路一段101號,Daan Dist.,YouBike2.0_MRT Zhongxiao Xinsheng Sta. (Exit 6),No. 101， Sec. 1， Xinsheng S. Rd.,15,1,2023/5/8 10:09,2023/5/8 10:09,2023/5/8 09:18,2023/5/8
500101150,YouBike2.0_,捷運忠孝新生站(4號出口),34,4,大安區,2023/5/8 10:07,25.04239,121.53324,忠孝新生路口北側,Daan Dist.,YouBike2.0_MRT Zhongxiao Xinsheng Sta. (Exit 4),Zhongxiao & Xinsheng S. Rd Intersection. (North),30,1,2023/5/8 10:09,2023/5/8 10:09,2023/5/8 10:07,2023/5/8
500101151,YouBike2.0_,大安高工,23,21,大安區,2023/5/8 10:06,25.03126,121.54339,復興南路二段52號(前),Daan Dist.,YouBike2.0_Daan Vocational High School,No. 52， Sec. 2， Fuxing S. Rd.,2,1,2023/5/8 10:09,2023/5/8 10:09,2023/5/8 10:06,2023/5/8
500101152,YouBike2.0_,捷運忠孝新生站(3號出口),23,19,大安區,2023/5/8 09:53,25.04189,121.53376,忠孝東路三段與10巷口,Daan Dist.,YouBike2.0_MRT Zhongxiao Xinsheng Sta. (Exit 3),Sec. 3， Zhongxiao E. Rd & Ln. 10， Sec. 3， Zhongxiao E. Rd Intersection,4,1,2023/5/8 10:09,2023/5/8 10:09,2023/5/8 09:53,2023/5/8
500101153,YouBike2.0_,?公公園,20,10,大安區,2023/5/8 09:06,25.04201,121.54612,忠孝東路四段49巷4弄/大安路口,Daan Dist.,YouBike2.0_Liugong Park,Aly. 4， Ln. 49， Sec. 4， Zhongxiao E. Rd./Da'an Rd. Intersection,10,1,2023/5/8 10:09,2023/5/8 10:09,2023/5/8 09:06,2023/5/8
500101154,YouBike2.0_,敦化市民路口,23,10,大安區,2023/5/8 10:06,25.04405,121.5486,敦化南路1段158號(前),Daan Dist.,YouBike2.0_Dunhua S. Rd. & Civic Blvd. Intersection,No. 158， Sec. 1， Dunhua S. Rd.,12,1,2023/5/8 10:09,2023/5/8 10:09,2023/5/8 10:06,2023/5/8
500101155,YouBike2.0_,捷運大安森林公園站(5號出口),15,1,大安區,2023/5/8 10:08,25.03336,121.5364,捷運大安森林公園站(5號出口)東側,Daan Dist.,YouBike2.0_MRT Daan Park Sta. (Exit 5),MRT Daan Park Sta. (Exit 5) (East),14,1,2023/5/8 10:09,2023/5/8 10:09,2023/5/8 10:08,2023/5/8
500101156,YouBike2.0_,信義建國路口,38,4,大安區,2023/5/8 10:05,25.0328,121.53746,建國南路二段與信義路三段口西南側,Daan Dist.,YouBike2.0_Xinyi Rd. & Jianguo Rd. Intersection,Sec. 2， Jianguo S Rd. & Sec. 3， Xinyi Rd. Intersection (Southwest),34,1,2023/5/8 10:09,2023/5/8 10:09,2023/5/8 10:05,2023/5/8
500101157,YouBike2.0_,東豐公園,19,11,大安區,2023/5/8 10:05,25.03569,121.5451,東豐街24號(旁公園路側),Daan Dist.,YouBike2.0_Dongfeng Park,No. 24， Dongfeng St.,8,1,2023/5/8 10:09,2023/5/8 10:09,2023/5/8 10:05,2023/5/8
500101158,YouBike2.0_,德安公園(四維路66巷),14,9,大安區,2023/5/8 09:54,25.03473,121.54767,四維路66巷6號北側,Daan Dist.,YouBike2.0_Dean Park,No. 6， Ln. 66， Siwei Rd.,5,1,2023/5/8 10:09,2023/5/8 10:09,2023/5/8 09:54,2023/5/8
500101159,YouBike2.0_,捷運忠孝復興站(5號出口),41,7,大安區,2023/5/8 10:06,25.04262,121.54443,復興南路一段135巷3號(對面),Daan Dist.,YouBike2.0_MRT Zhongxiao Fuxing Sta (Exit 5),No. 3， Ln. 135， Sec. 1， Fuxing S. Rd. (Opposite),34,1,2023/5/8 10:09,2023/5/8 10:09,2023/5/8 10:06,2023/5/8
500101160,YouBike2.0_,捷運忠孝敦化站(2號出口),17,6,大安區,2023/5/8 09:50,25.04153,121.5524,忠孝東路四段221號,Daan Dist.,YouBike2.0_MRT Zhongxiao Dunhua Sta. (Exit 2),No. 221， Sec. 4， Zhongxiao E. Rd.,11,1,2023/5/8 10:09,2023/5/8 10:09,2023/5/8 09:50,2023/5/8
500101161,YouBike2.0_,捷運忠孝敦化站(7號出口),18,0,大安區,2023/5/8 09:52,25.04159,121.54937,忠孝東路四段143號,Daan Dist.,YouBike2.0_MRT Zhongxiao Dunhua Sta. (Exit 7),No. 143， Sec. 4， Zhongxiao E. Rd.,18,1,2023/5/8 10:09,2023/5/8 10:09,2023/5/8 09:52,2023/5/8
500101163,YouBike2.0_,瑞安街208巷,15,6,大安區,2023/5/8 10:06,25.02979,121.54053,瑞安街208巷39號對面,Daan Dist.,YouBike2.0_Ln. 208， Rui'an St.,No. 39， Ln. 208， Rui'an St. (Opposite),9,1,2023/5/8 10:09,2023/5/8 10:09,2023/5/8 10:06,2023/5/8
500101165,YouBike2.0_,樂利路21巷口,17,3,大安區,2023/5/8 10:05,25.0277,121.55132,樂利路25號,Daan Dist.,YouBike2.0_Ln. 21， Leli Rd. Intersection,No. 25， Leli Rd.,14,1,2023/5/8 10:09,2023/5/8 10:09,2023/5/8 10:05,2023/5/8
500101166,YouBike2.0_,捷運科技大樓站(台北教育大學),46,25,大安區,2023/5/8 10:09,25.02469,121.54459,和平東路二段134號前,Daan Dist.,YouBike2.0_MRT Technology Building Station,No. 134， Sec. 2， Heping E. Rd.,21,1,2023/5/8 10:09,2023/5/8 10:09,2023/5/8 10:09,2023/5/8
500101167,YouBike2.0_,捷運國父紀念館站(2號出口),38,11,大安區,2023/5/8 10:02,25.04122,121.55745,忠孝東路四段/光復南路口(西南側),Daan Dist.,YouBike2.0_MRT S.Y.S Memorial Hall Stataion(Exit 2.),Sec. 4， Jhongsiao E. Rd. & Guangfu S. Rd. Intersection (Southwest),27,1,2023/5/8 10:09,2023/5/8 10:09,2023/5/8 10:02,2023/5/8
500101168,YouBike2.0_,仁愛醫院,30,11,大安區,2023/5/8 10:07,25.03756,121.54587,仁愛路四段/大安路一段口(西南側),Daan Dist.,YouBike2.0_Taipei City Hospital Renai Branch,Sec. 4， Ren'ai Rd. & Sec. 1， Da'an Rd. Intersection (Southwest),19,1,2023/5/8 10:09,2023/5/8 10:09,2023/5/8 10:07,2023/5/8
500101169,YouBike2.0_,捷運信義安和站(4號出口),30,28,大安區,2023/5/8 10:03,25.03305,121.55378,信義路四段252號前,Daan Dist.,YouBike2.0_MRT Xinyi Anhe Sta.(Exit.4),No. 252， Sec. 4， Sinyi Rd.,2,1,2023/5/8 10:09,2023/5/8 10:09,2023/5/8 10:03,2023/5/8
500101170,YouBike2.0_,成功國宅,30,5,大安區,2023/5/8 09:58,25.02681,121.54668,和平東路三段1巷/四維路198巷口(西北側),Daan Dist.,YouBike2.0_Chengong Public Housing,Ln. 1， Sec. 3， Heping E. Rd. & Ln. 198， Sihwei Rd. Intersection (Northwest),25,1,2023/5/8 10:09,2023/5/8 10:09,2023/5/8 09:58,2023/5/8
500101171,YouBike2.0_,仁愛延吉街口,25,21,大安區,2023/5/8 09:59,25.03748,121.55564,仁愛路四段376號前,Daan Dist.,YouBike2.0_Renai & Yanji Intersection,No. 376， Sec. 4， Ren'ai Rd.,4,1,2023/5/8 10:09,2023/5/8 10:09,2023/5/8 09:59,2023/5/8
500101172,YouBike2.0_,捷運信義安和站(1號出口),33,16,大安區,2023/5/8 09:59,25.03331,121.55265,信義路四段225號前,Daan Dist.,YouBike2.0_MRT Xinyi Anhe Sta.(Exit.1),No. 225， Sec. 4， Sinyi Rd.,17,1,2023/5/8 10:09,2023/5/8 10:09,2023/5/8 09:59,2023/5/8
500101173,YouBike2.0_,敦化南路二段103巷口,24,7,大安區,2023/5/8 10:05,25.0287,121.54904,敦化南路二段99號前,Daan Dist.,YouBike2.0_Ln. 103，Sec. 2，Dunhua S. Rd.,No. 99， Sec. 2， Dunhua S. Rd.,17,1,2023/5/8 10:09,2023/5/8 10:09,2023/5/8 10:05,2023/5/8
500101174,YouBike2.0_,復興南路二段128巷口,28,12,大安區,2023/5/8 09:54,25.02861,121.54336,復興南路二段142之1號前,Daan Dist.,YouBike2.0_Ln. 128， Sec. 2， Fuxing S. Rd.,No. 142-1， Sec. 2， Fusing S. Rd.,15,1,2023/5/8 10:09,2023/5/8 10:09,2023/5/8 09:54,2023/5/8
500101175,YouBike2.0_,和平東建國南路口,17,6,大安區,2023/5/8 10:08,25.02575,121.5377,和平東路/建國南路口(北側),Daan Dist.,YouBike2.0_Heping E. Rd. & Jianguo S. Rd. Intersection,Heping E. Rd. & Jianguo S. Rd. Intersection (North),11,1,2023/5/8 10:09,2023/5/8 10:09,2023/5/8 10:08,2023/5/8
500101176,YouBike2.0_,芳蘭山莊,16,1,大安區,2023/5/8 10:09,25.01223,121.54788,基隆路三段155巷148號,Daan Dist.,YouBike2.0_Fanglan,No. 148， Ln. 155， Sec. 3， Keelung Rd.,15,1,2023/5/8 10:09,2023/5/8 10:09,2023/5/8 10:09,2023/5/8
500101177,YouBike2.0_,復興南路一段126巷口,15,2,大安區,2023/5/8 09:55,25.04311,121.54313,復興南路一段126巷1號前,Daan Dist.,YouBike2.0_Ln. 126， Sec. 1， Fuxing S. Rd.,No. 1， Ln. 126， Sec. 1， Fuxing S. Rd.,13,1,2023/5/8 10:09,2023/5/8 10:09,2023/5/8 09:55,2023/5/8
500101179,YouBike2.0_,捷運東門站(5號出口),28,12,大安區,2023/5/8 10:06,25.03363,121.52962,信義路二段178號前,Daan Dist.,YouBike2.0_MRT Dongmen Sta. (Exit 5),No. 178， Sec. 2， Xinyi Rd.,16,1,2023/5/8 10:09,2023/5/8 10:09,2023/5/8 10:06,2023/5/8
500101180,YouBike2.0_,仁愛路四段48巷口,11,7,大安區,2023/5/8 09:51,25.03609,121.54709,仁愛路四段48巷/東豐街(北側),Daan Dist.,YouBike2.0_Ln. 48， Sec. 4， Ren'ai Rd.,Ln. 48， Sec. 4， Ren'ai Rd. & Dongfeng St. Intersection (North),4,1,2023/5/8 10:09,2023/5/8 10:09,2023/5/8 09:51,2023/5/8
500101181,YouBike2.0_,捷運公館站(3號出口),90,1,大安區,2023/5/8 10:05,25.01551,121.53374,捷運公館站(3號出口)西側,Daan Dist.,YouBike2.0_MRT Gongguan Sta.(Exit.3),MRT Gongguan Sta.(Exit.3)(West),88,1,2023/5/8 10:09,2023/5/8 10:09,2023/5/8 10:05,2023/5/8
500101182,YouBike2.0_,臺北科技大學(電機工程系),16,5,大安區,2023/5/8 09:38,25.04196,121.53653,忠孝東路三段100號對側,Daan Dist.,YouBike2.0_NTUT(EE),No. 100， Sec. 3， Zhongxiao E. Rd. (Opposite),11,1,2023/5/8 10:09,2023/5/8 10:09,2023/5/8 09:38,2023/5/8
500101183,YouBike2.0_,忠孝東路三段217巷口,34,20,大安區,2023/5/8 09:30,25.04176,121.54027,忠孝東路三段229-1號前,Daan Dist.,YouBike2.0_Ln. 217， Sec. 3， Zhongxiao E. Rd.,No. 229-1， Sec. 3， Zhongxiao E. Rd.,14,1,2023/5/8 10:09,2023/5/8 10:09,2023/5/8 09:30,2023/5/8
500101184,YouBike2.0_,新生南路三段94巷口,15,3,大安區,2023/5/8 10:05,25.01744,121.53334,新生南路三段94號前,Daan Dist.,YouBike2.0_Ln. 94， Sec. 3， Xinsheng S. Rd. Intersection,No. 94， Sec. 3， Xinsheng S. Rd.,12,1,2023/5/8 10:09,2023/5/8 10:09,2023/5/8 10:05,2023/5/8
500101185,YouBike2.0_,辛亥新生路口西北側,12,1,大安區,2023/5/8 10:01,25.02267,121.5341,辛亥路一段/新生南路三段(西北側),Daan Dist.,YouBike2.0_Xinhai Rd. & Xinsheng S. Rd. Intersection,Sec. 1， Xinhai Rd. & Sec. 3， Xinsheng S. Rd. Intersection (Northwest),11,1,2023/5/8 10:09,2023/5/8 10:09,2023/5/8 10:01,2023/5/8
500101186,YouBike2.0_,捷運大安站(6號出口),19,12,大安區,2023/5/8 10:08,25.03479,121.54376,復興南路一段303號前,Daan Dist.,YouBike2.0_MRT Da’an Sta. (Exit 6),No. 303， Sec. 1， Fuxing S. Rd.,7,1,2023/5/8 10:09,2023/5/8 10:09,2023/5/8 10:08,2023/5/8
500101187,YouBike2.0_,臥龍街195巷口,14,4,大安區,2023/5/8 09:49,25.01783,121.55224,臥龍街/臥龍街195巷(南側),Daan Dist.,YouBike2.0_Ln. 195， Wolong St.,Wolong St. / Ln. 195， Wolong St. Intersection (South),10,1,2023/5/8 10:09,2023/5/8 10:09,2023/5/8 09:49,2023/5/8
500101188,YouBike2.0_,辛亥路三段157巷口,19,5,大安區,2023/5/8 09:54,25.01727,121.54904,辛亥路三段與辛亥路三段157巷口西北側,Daan Dist.,YouBike2.0_Ln. 157， Sec. 3， Xinhai Rd.,Sec. 3， Xinhai Rd. & Ln. 157， Sec. 3， Xinhai Rd. Intersection (Northwest),14,1,2023/5/8 10:09,2023/5/8 10:09,2023/5/8 09:54,2023/5/8
500101189,YouBike2.0_,臥龍基隆路口,16,1,大安區,2023/5/8 09:58,25.02039,121.54853,臥龍街與基隆路二段口東北側,Daan Dist.,YouBike2.0_Wolong St. & Xinyi Rd. Intersection,Wolong St. & Sec. 2， Xinyi Rd. Intersection (Northeast),15,1,2023/5/8 10:09,2023/5/8 10:09,2023/5/8 09:58,2023/5/8
500101190,YouBike2.0_,敦親公園,20,13,大安區,2023/5/8 09:51,25.02347,121.54108,和平東路二段96巷8之1號(前方),Daan Dist.,YouBike2.0_Dunchin Park,No. 8-1， Ln. 96， Sec. 2， Heping E. Rd.,7,1,2023/5/8 10:09,2023/5/8 10:09,2023/5/8 09:51,2023/5/8
500101191,YouBike2.0_,大安運動中心,27,8,大安區,2023/5/8 09:59,25.02054,121.54561,辛亥路三段55號前方人行道(大安運動中心),Daan Dist.,YouBike2.0_Taipei Daan Sports Center,No. 55， Sec. 3， Xinhai Rd.,19,1,2023/5/8 10:09,2023/5/8 10:09,2023/5/8 09:59,2023/5/8
500101192,YouBike2.0_,和平敦化路口,25,6,大安區,2023/5/8 09:44,25.02444,121.54908,和平東路三段 / 敦化南路二段口(東側),Daan Dist.,YouBike2.0_Heping Rd. & Dunhua Rd. Intersection,Sec. 3， Heping E. Rd. & Sec. 2， Dunhua S. Rd. Intersection (East),19,1,2023/5/8 10:09,2023/5/8 10:09,2023/5/8 09:44,2023/5/8
500101193,YouBike2.0_,基隆長興路口,43,10,大安區,2023/5/8 10:05,25.01705,121.54435,基隆路/長興街(東南側),Daan Dist.,YouBike2.0_Keelung Rd. & Changxing St. Intersection,Keelung Rd. & Changxing St. Intersection (Southeast),33,1,2023/5/8 10:09,2023/5/8 10:09,2023/5/8 10:05,2023/5/8
500101194,YouBike2.0_,仁愛路四段122巷口,16,10,大安區,2023/5/8 10:09,25.03762,121.55009,仁愛路四段118號前,Daan Dist.,YouBike2.0_Ln. 122， Sec. 4， Ren'ai Rd.,No. 188， Sec. 4， Ren'ai Rd.,6,1,2023/5/8 10:09,2023/5/8 10:09,2023/5/8 10:09,2023/5/8
500101196,YouBike2.0_,市民敦化路口,15,9,大安區,2023/5/8 09:54,25.04464,121.54944,敦化南路一段111號前,Daan Dist.,YouBike2.0_Civic Blvd. & Dunhua Rd. Intersection,No. 111， Sec. 1， Dunhua S. Rd.,6,1,2023/5/8 10:09,2023/5/8 10:09,2023/5/8 09:54,2023/5/8
500101197,YouBike2.0_,忠孝東路四段49巷口,15,5,大安區,2023/5/8 09:36,25.04172,121.54541,忠孝東路四段55號前,Daan Dist.,YouBike2.0_Ln. 49， Sec. 4， Zhongxiao E. Rd.,No. 55， Sec. 4， Zhongxiao E. Rd.,10,1,2023/5/8 10:09,2023/5/8 10:09,2023/5/8 09:36,2023/5/8
500101198,YouBike2.0_,市民復興路口(東南側),16,8,大安區,2023/5/8 10:01,25.04472,121.54401,市民大道四段/復興路一段口(東南側),Daan Dist.,YouBike2.0_Civic Blvd. & Fuxing Rd. Intersection (Southeast),Sec. 4， Civic Blvd. & Sec. 1， Fuxing S. Rd. Intersection (Southeast),8,1,2023/5/8 10:09,2023/5/8 10:09,2023/5/8 10:01,2023/5/8
500101199,YouBike2.0_,和平新生路口西南側,13,1,大安區,2023/5/8 10:08,25.02598,121.53454,新生南路三段2號前,Daan Dist.,YouBike2.0_Heping Rd. & Xinsheng S. Rd. Intersection (Southwest),No. 2， Sec. 3， Xinsheng S. Rd.,12,1,2023/5/8 10:09,2023/5/8 10:09,2023/5/8 10:08,2023/5/8
500101200,YouBike2.0_,全安公園,16,7,大安區,2023/5/8 10:01,25.02535,121.55101,安和路二段227巷16號對側,Daan Dist.,YouBike2.0_Quanan Park,No. 16， Ln. 227， Sec. 2， Anhe Rd. (Opposite),9,1,2023/5/8 10:09,2023/5/8 10:09,2023/5/8 10:01,2023/5/8
500101201,YouBike2.0_,信義路三段134巷口,19,4,大安區,2023/5/8 10:06,25.03333,121.53968,信義路三段/信義路三段134巷口,Daan Dist.,YouBike2.0_Ln. 134， Sec. 3， Xinyi Rd.,Sec. 3， Xinyi Rd. & Ln. 134， Sec. 3， Xinyi Rd. Intersection,14,1,2023/5/8 10:09,2023/5/8 10:09,2023/5/8 10:06,2023/5/8
500101202,YouBike2.0_,仁愛敦南圓環(東南側),16,6,大安區,2023/5/8 09:54,25.03715,121.54936,仁愛路四段110號前,Daan Dist.,YouBike2.0_Renai Dunnan Traffic Cir (Southeast),No. 110， Sec. 4， Ren'ai Rd.,10,1,2023/5/8 10:09,2023/5/8 10:09,2023/5/8 09:54,2023/5/8
500101203,YouBike2.0_,臺北遠企購物中心,33,7,大安區,2023/5/8 09:22,25.02709,121.54902,敦化南路二段201號前,Daan Dist.,YouBike2.0_Chenggong Public House,No. 201， Sec. 2， Dunhua S. Rd.,26,1,2023/5/8 10:09,2023/5/8 10:09,2023/5/8 09:22,2023/5/8
500101204,YouBike2.0_,外交部外交及國際事務學院,17,7,大安區,2023/5/8 09:28,25.0371,121.54839,敦化南路一段280號,Daan Dist.,YouBike2.0_Institute of Diplomacy and International Affairs,No. 280， Sec. 1， Dunhua S. Rd.,10,1,2023/5/8 10:09,2023/5/8 10:09,2023/5/8 09:28,2023/5/8
500101205,YouBike2.0_,四維路170巷口,22,13,大安區,2023/5/8 10:08,25.02821,121.54864,敦化南路二段92號對側中央分隔島,Daan Dist.,YouBike2.0_Ln. 170， Siwei Rd.,No. 92， Sec. 2， Dunhua S. Rd. (Opposite),9,1,2023/5/8 10:09,2023/5/8 10:09,2023/5/8 10:08,2023/5/8
500101206,YouBike2.0_,捷運大安站(3號出口),44,16,大安區,2023/5/8 10:05,25.03328,121.5425,信義路三段184號前,Daan Dist.,YouBike2.0_MRT Da’an Sta. (Exit 3),No. 184， Sec. 3， Xinyi Rd.,28,1,2023/5/8 10:09,2023/5/8 10:09,2023/5/8 10:05,2023/5/8
500101207,YouBike2.0_,捷運臺電大樓站(2號出口)_1,31,3,大安區,2023/5/8 10:07,25.02055,121.52855,羅斯福路三段201號旁,Daan Dist.,YouBike2.0_MRT Taipower Building Sta. (Exit 2)_1,No. 201， Sec. 3， Roosevelt Rd.,28,1,2023/5/8 10:09,2023/5/8 10:09,2023/5/8 10:07,2023/5/8
500101208,YouBike2.0_,信義路四段199巷,15,7,大安區,2023/5/8 09:33,25.03459,121.55164,信義路四段199巷/安和路一段90巷口,Daan Dist.,YouBike2.0_Ln. 199， Sec. 4， Xinyi Rd.,Ln. 199， Sec. 4， Xinyi Rd. & Ln. 90， Sec. 1， Anhe Rd. Intersection,8,1,2023/5/8 10:09,2023/5/8 10:09,2023/5/8 09:33,2023/5/8
500101209,YouBike2.0_,臺大資訊大樓,40,7,大安區,2023/5/8 09:48,25.02101,121.54153,辛亥路二段(臺大外語學院外),Daan Dist.,YouBike2.0_NTU Information Building,Sec. 2， Xinhai Rd.(NTU Language Center),33,1,2023/5/8 10:09,2023/5/8 10:09,2023/5/8 09:48,2023/5/8
500101210,YouBike2.0_,敦化南路二段81巷,40,28,大安區,2023/5/8 10:01,25.03002,121.54893,敦化南路二段與敦化南路二段81巷口西北側,Daan Dist.,YouBike2.0_Ln. 81， Sec. 2， Dunhua S. Rd.,Sec. 2， Dunhua S. Rd. & Ln. 81， Sec. 2， Dunhua S. Rd. Intersection (Northwest),12,1,2023/5/8 10:09,2023/5/8 10:09,2023/5/8 10:01,2023/5/8
500101211,YouBike2.0_,原臺北刑務所官舍,23,9,大安區,2023/5/8 09:07,25.03054,121.52466,金華街78號對側,Daan Dist.,YouBike2.0_Former Taipei Prison Office,No. 78， Jinhua St. (Opposite),13,1,2023/5/8 10:09,2023/5/8 10:09,2023/5/8 09:07,2023/5/8
500101212,YouBike2.0_,捷運國父紀念館站(1號出口),25,23,大安區,2023/5/8 09:57,25.04205,121.55657,光復南路200巷26號東側,Daan Dist.,YouBike2.0_MRT S.Y.S Memorial Hall Sta. (Exit 1),No. 26， Ln. 200， Guangfu S. Rd. (East),2,1,2023/5/8 10:09,2023/5/8 10:09,2023/5/8 09:57,2023/5/8
500101213,YouBike2.0_,懷生國中,15,9,大安區,2023/5/8 09:59,25.0401,121.54122,忠孝東路三段248巷30號,Daan Dist.,YouBike2.0_Huai Sheng Junior High School,No. 30， Ln. 248， Sec. 3， Zhongxiao E. Rd.,6,1,2023/5/8 10:09,2023/5/8 10:09,2023/5/8 09:59,2023/5/8
500101214,YouBike2.0_,仁愛敦南圓環(西北側),20,16,大安區,2023/5/8 10:06,25.03827,121.54802,仁愛路四段85號前,Daan Dist.,YouBike2.0_Renai Dunnan Traffic Cir (Northwest),No. 85， Sec. 4， Ren'ai Rd,4,1,2023/5/8 10:09,2023/5/8 10:09,2023/5/8 10:06,2023/5/8
500101215,YouBike2.0_,立人國小,17,9,大安區,2023/5/8 09:55,25.02974,121.55146,安和路二段/敦化南路二段81巷(西南側),Daan Dist.,YouBike2.0_Lih Jen International Private Elementary and Middle School,Sec. 2， Anhe Rd. & Ln. 81， Sec. 2， Dunhua S. Rd. Intersection (Southwest),8,1,2023/5/8 10:09,2023/5/8 10:09,2023/5/8 09:55,2023/5/8
500101216,YouBike2.0_,和平東路二段18巷口,24,13,大安區,2023/5/8 09:25,25.02268,121.53608,辛亥路二段43號前,Daan Dist.,YouBike2.0_Ln. 18， Sec. 2， Heping E. Rd.,No. 43， Sec. 2， Xinhai Rd.,11,1,2023/5/8 10:09,2023/5/8 10:09,2023/5/8 09:25,2023/5/8
500101217,YouBike2.0_,捷運大安站(5號出口),19,5,大安區,2023/5/8 10:01,25.03303,121.54372,復興南路二段/信義路四段(東南側),Daan Dist.,YouBike2.0_MRT Da’an Sta. (Exit 5),Sec. 2， Fuxing S. Rd. & Sec. 4， Xinyi Rd. Intersection (Southeast),14,1,2023/5/8 10:09,2023/5/8 10:09,2023/5/8 10:01,2023/5/8
500101218,YouBike2.0_,臨江公園,13,9,大安區,2023/5/8 09:45,25.02832,121.55592,通化街143巷33號對側,Daan Dist.,YouBike2.0_Linjiang Park,No. 33， Ln. 143， Tonghua St. (Opposite),4,1,2023/5/8 10:09,2023/5/8 10:09,2023/5/8 09:45,2023/5/8
500101219,YouBike2.0_,羅斯福路四段113巷19弄口,14,4,大安區,2023/5/8 09:16,25.01027,121.53998,羅斯福路四段119巷84號對側,Daan Dist.,YouBike2.0_Aly. 19， Ln. 113， Sec. 4， Roosevelt Rd.,No. 84， Ln. 119， Sec. 4， Roosevelt Rd. (Opposite),10,1,2023/5/8 10:09,2023/5/8 10:09,2023/5/8 09:16,2023/5/8
500101221,YouBike2.0_,忠孝東路四段248巷口,15,9,大安區,2023/5/8 09:42,25.04132,121.55393,忠孝東路四段230號前,Daan Dist.,YouBike2.0_Ln. 248， Sec. 4， Zhongxiao E. Rd.,No. 230， Sec. 4， Zhongxiao E. Rd.,6,1,2023/5/8 10:09,2023/5/8 10:09,2023/5/8 09:42,2023/5/8
500101222,YouBike2.0_,仁愛延吉路口(西北側),18,12,大安區,2023/5/8 10:05,25.03795,121.55466,仁愛路四段363號前,Daan Dist.,YouBike2.0_Ren'ai Rd. & Yanji St. Intersection (Northwest),No. 363， Sec. 4， Ren'ai Rd.,6,1,2023/5/8 10:09,2023/5/8 10:09,2023/5/8 10:05,2023/5/8
500101223,YouBike2.0_,樂利路101巷口,13,5,大安區,2023/5/8 09:59,25.02528,121.55224,樂利路97號前,Daan Dist.,YouBike2.0_Ln. 101， Leli Rd.,No. 97， Leli Rd.,8,1,2023/5/8 10:09,2023/5/8 10:09,2023/5/8 09:59,2023/5/8
500101224,YouBike2.0_,羅斯福浦城街口,15,4,大安區,2023/5/8 05:15,25.02208,121.52678,羅斯福路三段117號前,Daan Dist.,YouBike2.0_Roosevelt Rd. & Pucheng St. Intersection,No. 117， Sec. 3， Roosevelt Rd.,11,1,2023/5/8 10:09,2023/5/8 10:09,2023/5/8 05:15,2023/5/8
500103001,YouBike2.0_,延平國宅,30,19,大同區,2023/5/8 08:56,25.07894,121.51121,延平北路五段1-1號(對面),Datong Dist,YouBike2.0_Yanping Public Housing,No. 1-1， Sec. 5， Yanping N. Rd. (Opposite),11,1,2023/5/8 10:09,2023/5/8 10:09,2023/5/8 08:56,2023/5/8
500103002,YouBike2.0_,臺北市立圖書館大同分館,20,13,大同區,2023/5/8 09:45,25.0741,121.51349,重慶北路三段318號旁,Datong Dist,YouBike2.0_Taipei Public Library DaTong Branch,No. 318， Sec. 3， Chongqing N Rd.,7,1,2023/5/8 10:09,2023/5/8 10:09,2023/5/8 09:45,2023/5/8
500103003,YouBike2.0_,合昌宮,15,8,大同區,2023/5/8 05:27,25.07717,121.50934,環河北路二段371號旁,Datong Dist,YouBike2.0_Hechang Temple,No. 371， Sec. 2， Huanhe N. Rd.,7,1,2023/5/8 10:09,2023/5/8 10:09,2023/5/8 05:27,2023/5/8
500103004,YouBike2.0_,民族延平路口,23,14,大同區,2023/5/8 09:47,25.06864,121.5107,延平北路三段123號北側,Datong Dist,YouBike2.0_Minzu Rd. & Yanping Rd. Intersection,No. 123， Sec. 3， Yanping N. Rd. (North),9,1,2023/5/8 10:09,2023/5/8 10:09,2023/5/8 09:47,2023/5/8
500103005,YouBike2.0_,重慶酒泉街口,30,13,大同區,2023/5/8 09:21,25.07158,121.51368,重慶北路三段260號前,Datong Dist,YouBike2.0_Chongqing Rd. & Jiuquan St. Intersection,No. 260， Sec. 3， Chongqing N. Rd.,17,1,2023/5/8 10:09,2023/5/8 10:09,2023/5/8 09:21,2023/5/8
500103006,YouBike2.0_,樹德公園,14,0,大同區,2023/5/8 09:43,25.06647,121.5165,大龍街85巷12號對側,Datong Dist,YouBike2.0_Shude Park,No. 12， Ln. 85， Dalong St. (Opposite),14,1,2023/5/8 10:09,2023/5/8 10:09,2023/5/8 09:43,2023/5/8
500103007,YouBike2.0_,陳天來故居,18,14,大同區,2023/5/8 09:55,25.05601,121.50895,西寧北路112號前方,Datong Dist,YouBike2.0_Chen Tian-lai Residence,No. 112， Xining N. Rd.,4,1,2023/5/8 10:09,2023/5/8 10:09,2023/5/8 09:55,2023/5/8
500103008,YouBike2.0_,臺北孔廟,27,18,大同區,2023/5/8 09:51,25.07378,121.51583,哈密街61號口對側人行道,Datong Dist,YouBike2.0_Taipei Confucius Temple,No. 61， Hami St. Intersection (Opposite),9,1,2023/5/8 10:09,2023/5/8 10:09,2023/5/8 09:51,2023/5/8
500103009,YouBike2.0_,捷運圓山站(1號出口),44,2,大同區,2023/5/8 10:06,25.07133,121.52024,酒泉街235號前,Datong Dist,YouBike2.0_MRT Yuanshan Sta. (Exit 1),No. 235， Jiuquan St.,42,1,2023/5/8 10:09,2023/5/8 10:09,2023/5/8 10:06,2023/5/8
500103010,YouBike2.0_,酒泉延平路口,26,5,大同區,2023/5/8 10:09,25.0722,121.51057,酒泉街235號前,Datong Dist,YouBike2.0_Jiuquan St. & Yanping Rd. Intersection,No. 235， Jiuquan St.,21,1,2023/5/8 10:09,2023/5/8 10:09,2023/5/8 10:09,2023/5/8
500103011,YouBike2.0_,重慶國中,37,10,大同區,2023/5/8 09:47,25.07567,121.51862,敦煌路19號前,Datong Dist,YouBike2.0_Chongqing Junior High School,No. 19， Dunhuang Rd.,27,1,2023/5/8 10:09,2023/5/8 10:09,2023/5/8 09:47,2023/5/8
500103012,YouBike2.0_,重慶北路三段383巷口,25,21,大同區,2023/5/8 07:40,25.07598,121.51409,敦煌路與重慶北路三段383巷口,Datong Dist,YouBike2.0_Ln. 383， Sec. 3， Chongqing N Rd. Intersection,Dunhuang Rd. & Ln. 383， Sec. 3， Chongqing N Rd. Intersection,4,1,2023/5/8 10:09,2023/5/8 10:09,2023/5/8 07:40,2023/5/8
500103013,YouBike2.0_,台北數位產業園區,24,5,大同區,2023/5/8 09:01,25.07447,121.52003,承德路三段287號前方,Datong Dist,YouBike2.0_DigiBlock Taipei,No. 287， Sec. 3， Chengde Rd.,19,1,2023/5/8 10:09,2023/5/8 10:09,2023/5/8 09:01,2023/5/8
500103019,YouBike2.0_,民權延平路口(西北側),20,7,大同區,2023/5/8 09:18,25.06326,121.51099,民權西路239號前方,Datong Dist,YouBike2.0_Minquan Rd. & Yanping Rd. Intersection (Northwest),No. 239， Minquan W. Rd.,13,1,2023/5/8 10:09,2023/5/8 10:09,2023/5/8 09:18,2023/5/8
500103020,YouBike2.0_,民權迪化街口,23,14,大同區,2023/5/8 09:19,25.06327,121.50943,民權西路與迪化街一段口(橋墩下),Datong Dist,YouBike2.0_Minquan Rd. & Dihua St. Intersection,Minquan W. Rd. & Sec. 1， Dihua St. Intersection (Under Bridge),9,1,2023/5/8 10:09,2023/5/8 10:09,2023/5/8 09:19,2023/5/8
500103021,YouBike2.0_,大稻埕公園,25,14,大同區,2023/5/8 10:08,25.05915,121.51033,安西街1巷7號(對側),Datong Dist,YouBike2.0_Dadaocheng Park,No. 7， Ln. 1， Anxi St. (Opposite),10,1,2023/5/8 10:09,2023/5/8 10:09,2023/5/8 10:08,2023/5/8
500103022,YouBike2.0_,大龍老人住宅,14,3,大同區,2023/5/8 09:06,25.06853,121.51729,民族西路82號前方,Datong Dist,YouBike2.0_Dalong Old People Housing,No. 82， Minzu W. Rd.,11,1,2023/5/8 10:09,2023/5/8 10:09,2023/5/8 09:06,2023/5/8
500103023,YouBike2.0_,大龍峒社會住宅,20,3,大同區,2023/5/8 09:18,25.0708,121.51826,承德路三段210號旁,Datong Dist,YouBike2.0_Dalongdong Social Housing,No. 210， Sec. 3， Chengde Rd.,17,1,2023/5/8 10:09,2023/5/8 10:09,2023/5/8 09:18,2023/5/8
500103024,YouBike2.0_,捷運大橋頭站(2號出口),57,25,大同區,2023/5/8 10:04,25.06314,121.51308,捷運大橋頭站(2號出口)西側,Datong Dist,YouBike2.0_MRT Daqiaotou Sta. (Exit 2),MRT Daqiaotou Sta. (Exit 2) (West),32,1,2023/5/8 10:09,2023/5/8 10:09,2023/5/8 10:04,2023/5/8
500103025,YouBike2.0_,捷運大橋頭站(1A出口),18,4,大同區,2023/5/8 09:11,25.06325,121.51162,民權西路237號旁,Datong Dist,YouBike2.0_MRT Daqiaotou Sta. (Exit 1A),No. 237， Minquan W Rd.,14,1,2023/5/8 10:09,2023/5/8 10:09,2023/5/8 09:11,2023/5/8
500103026,YouBike2.0_,捷運民權西路站(2號出口),25,0,大同區,2023/5/8 09:57,25.06174,121.51969,捷運民權西路站(2號出口)西側,Datong Dist,YouBike2.0_MRT Minquan W. Rd. Sta. (Exit 2),MRT Minquan W. Rd. Sta. (West),25,1,2023/5/8 10:09,2023/5/8 10:09,2023/5/8 09:57,2023/5/8
500103027,YouBike2.0_,捷運雙連站(2號出口),41,15,大同區,2023/5/8 10:04,25.05826,121.52063,萬全街22號對面,Datong Dist,YouBike2.0_MRT Shuanglian Sta. (Exit 2),No. 22， Wanquan St. (Opposite),22,1,2023/5/8 10:09,2023/5/8 10:09,2023/5/8 10:04,2023/5/8
500103028,YouBike2.0_,捷運北門站(3號出口),62,34,大同區,2023/5/8 10:03,25.04991,121.5104,塔城街與鄭州路口西南側,Datong Dist,YouBike2.0_MRT Beimen. (Exit 3),Tacheng St. & Zhengzhou Rd. Intersection (Southwest),28,1,2023/5/8 10:09,2023/5/8 10:09,2023/5/8 10:03,2023/5/8
500103029,YouBike2.0_,朝陽公園,10,3,大同區,2023/5/8 09:47,25.05592,121.51367,重慶北路二段62-1號旁,Datong Dist,YouBike2.0_Zhaoyang Park,No. 62-1， Sec. 2， Chongqing N. Rd.,6,1,2023/5/8 10:09,2023/5/8 10:09,2023/5/8 09:47,2023/5/8
500103030,YouBike2.0_,永樂市場,38,11,大同區,2023/5/8 10:09,25.05454,121.51052,南京西路233巷103號旁,Datong Dist,YouBike2.0_Yongle Market,No. 103， Ln. 233， Nanjing W. Rd.,26,1,2023/5/8 10:09,2023/5/8 10:09,2023/5/8 10:09,2023/5/8
500103031,YouBike2.0_,大龍公園,18,5,大同區,2023/5/8 10:09,25.07049,121.51596,大龍街217號對側,Datong Dist,YouBike2.0_Dalong Park,No. 217， Dalong St. (Opposite),13,1,2023/5/8 10:09,2023/5/8 10:09,2023/5/8 10:09,2023/5/8
500103032,YouBike2.0_,重慶涼州街口,13,4,大同區,2023/5/8 07:03,25.06054,121.51338,重慶北路二段180號旁,Datong Dist,YouBike2.0_Chongcing Rd. & Liangjhou St. Intersection,No. 180， Sec. 2， Chongcing N. Rd.,8,1,2023/5/8 10:09,2023/5/8 10:09,2023/5/8 07:03,2023/5/8
500103033,YouBike2.0_,圓山線形公園,14,5,大同區,2023/5/8 09:11,25.06867,121.51993,玉門街/民族西路(西北側),Datong Dist,YouBike2.0_Linear Park - Yuanshan,Minzu Rd. & Minzu W. Rd. Intersection (Northwest),8,1,2023/5/8 10:09,2023/5/8 10:09,2023/5/8 09:11,2023/5/8
500103034,YouBike2.0_,圓環站,28,25,大同區,2023/5/8 10:04,25.05369,121.51418,重慶北路一段128號前,Datong Dist,YouBike2.0_Yuanhuan,No. 128， Sec. 1， Chongcing N. Rd.,3,1,2023/5/8 10:09,2023/5/8 10:09,2023/5/8 10:04,2023/5/8
500103035,YouBike2.0_,重慶民族路口,20,7,大同區,2023/5/8 10:01,25.06853,121.51359,重慶北路三段162號前,Datong Dist,YouBike2.0_Chongcing Rd. & Minzu Rd. Intersection,No. 162， Sec. 3， Chongcing N. Rd.,13,1,2023/5/8 10:09,2023/5/8 10:09,2023/5/8 10:01,2023/5/8
500103036,YouBike2.0_,承德路三段8巷口,16,9,大同區,2023/5/8 09:57,25.06407,121.51822,承德路三段14號前,Datong Dist,YouBike2.0_Ln. 8， Sec. 3， Chengde Rd. Intersection,No. 14， Sec. 3， Chengde Rd.,7,1,2023/5/8 10:09,2023/5/8 10:09,2023/5/8 09:57,2023/5/8
500103037,YouBike2.0_,太原廣場,31,11,大同區,2023/5/8 10:01,25.04925,121.51468,鄭州路23號(旁),Datong Dist,YouBike2.0_Tai Yuan Guang Chang,No. 23， Zhengzhou Rd.,20,1,2023/5/8 10:09,2023/5/8 10:09,2023/5/8 10:01,2023/5/8
500103038,YouBike2.0_,國順公園,20,13,大同區,2023/5/8 08:42,25.06594,121.51078,昌吉街117號前,Datong Dist,YouBike2.0_Guoshun Park,No. 117， Changji St.,7,1,2023/5/8 10:09,2023/5/8 10:09,2023/5/8 08:42,2023/5/8
500103039,YouBike2.0_,聯合醫院中興院區,27,11,大同區,2023/5/8 10:06,25.05205,121.50818,長安西路299號(對面),Datong Dist,YouBike2.0_Taipei City Hospital Zhongxing Branch,No. 299， Chang'an W. Rd. (Opposite),16,1,2023/5/8 10:09,2023/5/8 10:09,2023/5/8 10:06,2023/5/8
500103040,YouBike2.0_,蔣渭水紀念公園,24,6,大同區,2023/5/8 09:41,25.06011,121.51729,錦西街/興城街口(西南側),Datong Dist,YouBike2.0_Chiang Wei-shui Memorial Park,Jinxi St. & Xingcheng St. Intersection (Southwest),17,1,2023/5/8 10:09,2023/5/8 10:09,2023/5/8 09:41,2023/5/8
500103041,YouBike2.0_,迪化休閒運動公園,15,5,大同區,2023/5/7 23:49,25.07491,121.5115,延平北路四段200號(南側),Datong Dist,YouBike2.0_Dihua Recreational Sports Park,No. 200， Sec. 4， Yanping N. (South),10,1,2023/5/8 10:09,2023/5/8 10:09,2023/5/7 23:49,2023/5/7
500103042,YouBike2.0_,大同運動中心,16,1,大同區,2023/5/8 08:06,25.06496,121.51608,大龍街51號(旁),Datong Dist,YouBike2.0_Taipei DaTong Sports Center,No. 51， Dalong St.,15,1,2023/5/8 10:09,2023/5/8 10:09,2023/5/8 08:06,2023/5/8
500103043,YouBike2.0_,重慶保安街口(家樂福重慶店),20,5,大同區,2023/5/8 09:14,25.05918,121.51373,重慶北路二段171號(旁),Datong Dist,YouBike2.0_Chongqing Rd. & Bao'an St. Intersection,No. 171， Sec. 2， Chongqing N. Rd.,15,1,2023/5/8 10:09,2023/5/8 10:09,2023/5/8 09:14,2023/5/8
500103044,YouBike2.0_,大稻埕碼頭,35,12,大同區,2023/5/8 10:02,25.05662,121.50783,大稻埕疏散門(淡五號水門)外,Datong Dist,YouBike2.0_Dadaocheng Wharf,Dadaocheng Evacuation Gate,15,1,2023/5/8 10:09,2023/5/8 10:09,2023/5/8 10:02,2023/5/8
500103045,YouBike2.0_,歸綏戲曲公園,20,9,大同區,2023/5/8 09:37,25.05805,121.51353,重慶北路二段/歸綏街口(南側),Datong Dist,YouBike2.0_Guisui Park,Sec. 2， Chongqing N. Rd. & Guisui St. Intersection (South),11,1,2023/5/8 10:09,2023/5/8 10:09,2023/5/8 09:37,2023/5/8
500103046,YouBike2.0_,民權國中(民權西路),17,7,大同區,2023/5/8 10:09,25.06322,121.5144,民權西路/蘭州街(西側),Datong Dist,YouBike2.0_Min-Quan Junior High School (Minquan W. Rd.),Minquan W. Rd. & Lanzhou St. Intersection (West),10,1,2023/5/8 10:09,2023/5/8 10:09,2023/5/8 10:09,2023/5/8
500103047,YouBike2.0_,承德民權路口,17,1,大同區,2023/5/8 02:55,25.06247,121.51839,承德路二段239號前,Datong Dist,YouBike2.0_Chengde Rd. & Minquan Rd. Intersection,No. 239， Sec. 2， Chengde Rd.,16,1,2023/5/8 10:09,2023/5/8 10:09,2023/5/8 02:55,2023/5/8
500103048,YouBike2.0_,南京太原路口,18,9,大同區,2023/5/8 10:09,25.05366,121.51638,南京西路/太原路(東側),Datong Dist,YouBike2.0_Nanjing Rd. & Taiyuan Rd. Intersection,Nanjing W. Rd. & Taiyuan Rd. Intersection (East),8,1,2023/5/8 10:09,2023/5/8 10:09,2023/5/8 10:09,2023/5/8
500103049,YouBike2.0_,承德民生西路口,11,6,大同區,2023/5/8 09:09,25.05756,121.51828,承德路二段137號前,Datong Dist,YouBike2.0_Chengde Rd. & Minsheng W. Rd. Intersection,No. 137， Sec. 2， Chengde Rd.,4,1,2023/5/8 10:09,2023/5/8 10:09,2023/5/8 09:09,2023/5/8
500103050,YouBike2.0_,太原五原路口,24,9,大同區,2023/5/8 09:56,25.05646,121.51698,太原路 / 五原路口(東南側),Datong Dist,YouBike2.0_Taiyuan Rd. & Wuyuan Rd. Intersection,Taiyuan Rd. & Wuyuan Rd. Intersection (Southeast),13,1,2023/5/8 10:09,2023/5/8 10:09,2023/5/8 09:56,2023/5/8
500103051,YouBike2.0_,臺北轉運站(華陰街),20,19,大同區,2023/5/8 10:06,25.04937,121.51914,華陰街45號(對面),Datong Dist,YouBike2.0_Taipei Bus Station (Huayin St.),No. 45， Huayin St. (Opposite),1,1,2023/5/8 10:09,2023/5/8 10:09,2023/5/8 10:06,2023/5/8
500103052,YouBike2.0_,捷運民權西路站(3號出口),50,12,大同區,2023/5/8 08:50,25.06129,121.52021,民權西路70巷37號對面,Datong Dist,YouBike2.0_MRT Minquan W. Rd. Sta. (Exit 3),No. 37， Ln. 70， Minquan W. Rd. (Opposite),38,1,2023/5/8 10:09,2023/5/8 10:09,2023/5/8 08:50,2023/5/8
500103053,YouBike2.0_,捷運中山站(5號出口),11,1,大同區,2023/5/8 09:50,25.05296,121.51938,南京西路57號前,Datong Dist,YouBike2.0_MRT Zhongshan Sta. (Exit 5),No. 57， Nanjing W. Rd.,10,1,2023/5/8 10:09,2023/5/8 10:09,2023/5/8 09:50,2023/5/8
500103054,YouBike2.0_,重慶長安路口,15,8,大同區,2023/5/8 09:53,25.0515,121.51398,長安西路244號(重慶路側),Datong Dist,YouBike2.0_Chongqing Rd. & Chang'an Rd. Intersection,No. 244， Chang'an W. Rd. (Sec. 1， Chongqing N. Rd.),7,1,2023/5/8 10:09,2023/5/8 10:09,2023/5/8 09:53,2023/5/8
500103055,YouBike2.0_,承德昌吉街口,18,6,大同區,2023/5/8 09:01,25.06587,121.51847,承德路三段83號前,Datong Dist,YouBike2.0_Chengde Rd. & Changji St. Intersection,No. 83， Sec. 3， Chengde Rd.,12,1,2023/5/8 10:09,2023/5/8 10:09,2023/5/8 09:01,2023/5/8
500103056,YouBike2.0_,大同16號廣場,14,5,大同區,2023/5/8 09:29,25.05658,121.50826,環河北路一段/民生西路口(東南側),Datong Dist,YouBike2.0_Datong Plaza No.16,Sec. 1， Huanhe N. Rd. & Minsheng W. Rd. Intersection (Southeast),9,1,2023/5/8 10:09,2023/5/8 10:09,2023/5/8 09:29,2023/5/8
500103057,YouBike2.0_,捷運圓山站(2號出口),37,5,大同區,2023/5/8 10:09,25.07182,121.51929,承德路三段/庫倫街(東南側),Datong Dist,YouBike2.0_MRT Yuanshan Sta. (Exit 2),Sec. 3， Chengde Rd. & Kulun St. Intersection (Southeast),32,1,2023/5/8 10:09,2023/5/8 10:09,2023/5/8 10:09,2023/5/8
500103058,YouBike2.0_,樹德公園_1,21,16,大同區,2023/5/8 08:56,25.06669,121.51615,大龍街/大龍街85巷(東北側),Datong Dist,YouBike2.0_Shude Park,Dalong St. & Ln. 85， Dalong St. Intersection (Northeast),5,1,2023/5/8 10:09,2023/5/8 10:09,2023/5/8 08:56,2023/5/8
500103059,YouBike2.0_,承德鄭州路口(市民高架下),38,13,大同區,2023/5/8 09:41,25.04879,121.51626,承德路一段/鄭州路口(市民高架下),Datong Dist,YouBike2.0_Chengde Rd. & Zhengzhou Rd.  Intersection,Sec. 1， Chengde Rd. & Zhengzhou Rd. (Under  Elevated Bridge),25,1,2023/5/8 10:09,2023/5/8 10:09,2023/5/8 09:41,2023/5/8
500103060,YouBike2.0_,成淵高中,14,4,大同區,2023/5/8 08:59,25.06036,121.51996,錦西街與錦西街52巷口東北側,Datong Dist,YouBike2.0_ChengYuan High School,Jinxi St. & Ln. 52， Jinxi St. Intersection (Northeast),9,1,2023/5/8 10:09,2023/5/8 10:09,2023/5/8 08:59,2023/5/8
500103061,YouBike2.0_,雙蓮國小,20,11,大同區,2023/5/8 08:08,25.06157,121.51683,民權西路102巷4弄25號對側人行道,Datong Dist,YouBike2.0_ShuangLian Elementary School,No. 25， Aly. 4， Ln. 102， Minquan W. Rd. (Opposite),9,1,2023/5/8 10:09,2023/5/8 10:09,2023/5/8 08:08,2023/5/8
500103062,YouBike2.0_,寧夏涼州街口,15,5,大同區,2023/5/8 08:30,25.06095,121.51428,寧夏路141號對側,Datong Dist,YouBike2.0_Ningxia Rd. & Liangzhou St. Intersection,No. 141， Ningxia Rd. (Opposite),10,1,2023/5/8 10:09,2023/5/8 10:09,2023/5/8 08:30,2023/5/8
500103063,YouBike2.0_,延平涼州街口,14,5,大同區,2023/5/8 08:58,25.06092,121.51126,延平北路二段/涼州街口(行人天橋下),Datong Dist,YouBike2.0_Yanping Rd. & Liangzhou St. Intersection,Sec. 2， Yanping N. Rd. & Liangzhou St. Intersection,9,1,2023/5/8 10:09,2023/5/8 10:09,2023/5/8 08:58,2023/5/8
500104001,YouBike2.0_,劍潭抽水站,17,9,士林區,2023/5/8 08:57,25.08128,121.51784,通河東街325巷/通河東街口,Shilin Dist,YouBike2.0_Jiantan Pumping Station,Ln. 325， Tonghe St. Intersection,8,1,2023/5/8 10:09,2023/5/8 10:09,2023/5/8 08:57,2023/5/8
500104002,YouBike2.0_,通河東街大南路口,15,6,士林區,2023/5/8 10:07,25.08914,121.51542,通河東街1段192號(旁),Shilin Dist,YouBike2.0_Tonghe E. St. & Danan Rd. Intersection,No. 192， Sec.1， Tonghe E. St. (Side),9,1,2023/5/8 10:09,2023/5/8 10:09,2023/5/8 10:07,2023/5/8
500104003,YouBike2.0_,福港街停車場,22,15,士林區,2023/5/8 09:52,25.08695,121.51901,華齡街175號(旁),Shilin Dist,YouBike2.0_Fugang St. Parking Lot,No. 175， Hualing St. (Side),7,1,2023/5/8 10:09,2023/5/8 10:09,2023/5/8 09:52,2023/5/8
500104004,YouBike2.0_,百齡國小,50,29,士林區,2023/5/8 10:02,25.08521,121.51918,前港街104號(對面),Shilin Dist,YouBike2.0_Bailing Elementary School,No. 104， Qiangang St. (Opposite),21,1,2023/5/8 10:09,2023/5/8 10:09,2023/5/8 10:02,2023/5/8
500104005,YouBike2.0_,雨聲街165巷口,15,7,士林區,2023/5/8 09:53,25.10277,121.53357,雨聲街/雨聲街165巷(西北側),Shilin Dist,YouBike2.0_Ln. 165， Yusheng St. Intersection,Ln. 165， Yusheng St. Intersection (Northwest),8,1,2023/5/8 10:09,2023/5/8 10:09,2023/5/8 09:53,2023/5/8
500104006,YouBike2.0_,天和公園,13,5,士林區,2023/5/8 09:30,25.12001,121.53342,天母東路69巷30號(前方路側),Shilin Dist,YouBike2.0_Tianhe Park,No.30， Ln.69， Tianmu E. Rd. (Front),7,1,2023/5/8 10:09,2023/5/8 10:09,2023/5/8 09:30,2023/5/8
500104007,YouBike2.0_,中山天母路口,29,2,士林區,2023/5/8 08:11,25.11856,121.52964,天母西路3-55號前人行道,Shilin Dist,YouBike2.0_Zhongshan & Tianmu Rd. Intersection,No. 3-55， Tianmu W. Rd. (Front),25,1,2023/5/8 10:09,2023/5/8 10:09,2023/5/8 08:11,2023/5/8
500104008,YouBike2.0_,天母運動公園,27,5,士林區,2023/5/8 09:50,25.11633,121.53414,忠誠路二段/忠誠路二段207巷(東南側),Shilin Dist,YouBike2.0_Tianmu Sports Park,Ln. 207， Sec.2， Zhongcheng Rd. (Southeast),22,1,2023/5/8 10:09,2023/5/8 10:09,2023/5/8 09:50,2023/5/8
500104009,YouBike2.0_,臺北市立大學(天母校區),23,9,士林區,2023/5/8 10:03,25.11356,121.53718,士東路276號至280號對面人行道,Shilin Dist,YouBike2.0_University of Taipei (Tianmu Campus),No. 276-280， Shidong Rd. (Opposite),13,1,2023/5/8 10:09,2023/5/8 10:09,2023/5/8 10:03,2023/5/8
500104010,YouBike2.0_,忠誠路二段53巷,18,9,士林區,2023/5/8 10:08,25.11127,121.53244,忠誠路2段53巷7號(對面),Shilin Dist,YouBike2.0_Ln. 53， Sec. 2， Zhongcheng Rd.,No.7， Ln. 53， Sec. 2， Zhongcheng Rd. (Opposite),9,1,2023/5/8 10:09,2023/5/8 10:09,2023/5/8 10:08,2023/5/8
500104012,YouBike2.0_,天母棒球場,26,4,士林區,2023/5/8 09:47,25.11341,121.53195,忠誠路二段122號(對面),Shilin Dist,YouBike2.0_Taipei Tianmu Baseball Stadium,No. 122， Sec. 2， Zhongcheng Rd. (Opposite),22,1,2023/5/8 10:09,2023/5/8 10:09,2023/5/8 09:47,2023/5/8
500104013,YouBike2.0_,天母北天玉街口,15,7,士林區,2023/5/8 09:55,25.12011,121.52652,天母北路33號(前),Shilin Dist,YouBike2.0_Tianmu N. Rd. & Tianyu St. Intersection,No. 33， Tianmu N. Rd.,8,1,2023/5/8 10:09,2023/5/8 10:09,2023/5/8 09:55,2023/5/8
500104014,YouBike2.0_,蘭興公園,48,35,士林區,2023/5/8 09:34,25.11184,121.52589,中山北路六段/士東路(西北側),Shilin Dist,YouBike2.0_Lanxing Park,Sec. 6， Zhongshan N. Rd. & Shidong Rd. Intersection (Northwest),13,1,2023/5/8 10:09,2023/5/8 10:09,2023/5/8 09:34,2023/5/8
500104015,YouBike2.0_,明勝公園,14,9,士林區,2023/5/8 08:43,25.08009,121.51895,承德路4段6巷71號(對面),Shilin Dist,YouBike2.0_Mingsheng Park,No. 71， Ln. 6， Sec.4， Chengde Rd. (Opposite),5,1,2023/5/8 10:09,2023/5/8 10:09,2023/5/8 08:43,2023/5/8
500104016,YouBike2.0_,劍潭海外青年活動中心,23,6,士林區,2023/5/8 08:59,25.07994,121.52426,中山北路4段/通河街口,Shilin Dist,YouBike2.0_Chientan Youth Activity Center,Sec. 4， Zhongshan N. Rd. & Tonghe St. Intersection,17,1,2023/5/8 10:09,2023/5/8 10:09,2023/5/8 08:59,2023/5/8
500104018,YouBike2.0_,忠誠路一段173巷口,11,3,士林區,2023/5/8 09:57,25.10813,121.5304,忠誠路一段177號(前),Shilin Dist,YouBike2.0_No. 173， Sec. 1， Zhongcheng Rd. Intersection,No. 177， Sec. 1， Zhongcheng Rd.,6,1,2023/5/8 10:09,2023/5/8 10:09,2023/5/8 09:57,2023/5/8
500104019,YouBike2.0_,雨農國小,35,20,士林區,2023/5/8 09:59,25.10564,121.52916,忠誠路一段127號(前),Shilin Dist,YouBike2.0_Yunong Elementary School,No. 127， Sec. 1， Zhongcheng Rd.,14,1,2023/5/8 10:09,2023/5/8 10:09,2023/5/8 09:59,2023/5/8
500104020,YouBike2.0_,忠誠公園,14,6,士林區,2023/5/8 08:54,25.10399,121.52593,忠誠路一段18號(對面),Shilin Dist,YouBike2.0_Zhongcheng Park,No. 18， Sec. 1， Zhongcheng Rd.,8,1,2023/5/8 10:09,2023/5/8 10:09,2023/5/8 08:54,2023/5/8
500104021,YouBike2.0_,芝山抽水站,21,18,士林區,2023/5/8 09:50,25.10155,121.52832,至誠路二段47-49號(前),Shilin Dist,YouBike2.0_Zhishan Pumping Plant,No. 47， Sec. 2， Zhicheng Rd.,2,1,2023/5/8 10:09,2023/5/8 10:09,2023/5/8 09:50,2023/5/8
500104022,YouBike2.0_,至誠路一段305巷口,21,13,士林區,2023/5/8 08:13,25.10186,121.53083,至誠路一段303號(對面),Shilin Dist,YouBike2.0_Ln. 305， Sec. 1， Zhicheng Rd. Intersection,No. 303， Sec. 1， Zhicheng Rd.,8,1,2023/5/8 10:09,2023/5/8 10:09,2023/5/8 08:13,2023/5/8
500104023,YouBike2.0_,華齡公園,25,16,士林區,2023/5/8 10:02,25.08302,121.52069,劍潭路76號(對面),Shilin Dist,YouBike2.0_Hualing Park,No. 76， Jiantan Rd. (Opposite),9,1,2023/5/8 10:09,2023/5/8 10:09,2023/5/8 10:02,2023/5/8
500104024,YouBike2.0_,前港公園(福德宮),18,11,士林區,2023/5/8 08:55,25.08671,121.52096,後港街134巷/後港街口,Shilin Dist,YouBike2.0_Qiangang Park(Fude Temple),Ln. 134， Hougang/Hougang St. Intersection,7,1,2023/5/8 10:09,2023/5/8 10:09,2023/5/8 08:55,2023/5/8
500104025,YouBike2.0_,華齡街185巷口,12,8,士林區,2023/5/8 09:40,25.08828,121.51985,華齡街188號(前),Shilin Dist,YouBike2.0_Ln. 185， Hualing St.,No. 188， Hualing St.,3,1,2023/5/8 10:09,2023/5/8 10:09,2023/5/8 09:40,2023/5/8
500104026,YouBike2.0_,前港公園(前港街),19,9,士林區,2023/5/8 10:09,25.0848,121.52125,前港街48號(對面),Shilin Dist,YouBike2.0_Qiangang Park (Qiangang St),No. 48， Qiangang St. (Opposite),8,1,2023/5/8 10:09,2023/5/8 10:09,2023/5/8 10:09,2023/5/8
500104027,YouBike2.0_,百齡高中,15,4,士林區,2023/5/8 09:28,25.08736,121.52272,承德路四段179巷/承德路4段口,Shilin Dist,YouBike2.0_Bailing High School,Ln. 179， Sec. 4， Chengde Rd. Intersection,11,1,2023/5/8 10:09,2023/5/8 10:09,2023/5/8 09:28,2023/5/8
500104028,YouBike2.0_,捷運芝山站(2號出口),21,6,士林區,2023/5/8 10:08,25.10364,121.52219,福華路151號(對面),Shilin Dist,YouBike2.0_MRT Zhishan Station,No. 151， Fuhua Rd. (Opposite),15,1,2023/5/8 10:09,2023/5/8 10:09,2023/5/8 10:08,2023/5/8
500104029,YouBike2.0_,臺灣戲曲中心,14,5,士林區,2023/5/8 09:58,25.10208,121.51979,文林路751號(南側),Shilin Dist,YouBike2.0_Taiwan Traditional Theatre Center,No. 751， Wenlin Rd. (South),9,1,2023/5/8 10:09,2023/5/8 10:09,2023/5/8 09:58,2023/5/8
500104030,YouBike2.0_,捷運劍潭站(2號出口),79,26,士林區,2023/5/8 10:08,25.08288,121.52455,基河路18號(對面),Shilin Dist,YouBike2.0_MRT Jianta Station,No.18， Jihe Rd. (Opposite),53,1,2023/5/8 10:09,2023/5/8 10:09,2023/5/8 10:08,2023/5/8
500104031,YouBike2.0_,劍潭基河路口,20,5,士林區,2023/5/8 10:01,25.08403,121.5249,劍潭路基河路口(捷運站橋下空間),Shilin Dist,YouBike2.0_Jiantan Rd & Jihe Rd Intersection,Jiantan Rd. & Jihe Rd. Intersection,15,1,2023/5/8 10:09,2023/5/8 10:09,2023/5/8 10:01,2023/5/8
500104032,YouBike2.0_,志成公園,23,14,士林區,2023/5/8 09:37,25.09667,121.53206,中正路/雨農路口(西北側),Shilin Dist,YouBike2.0_Zhicheng Park,Jhongjheng Rd & Yunong Rd. Intersection (Northwest),9,1,2023/5/8 10:09,2023/5/8 10:09,2023/5/8 09:37,2023/5/8
500104033,YouBike2.0_,福林國小,14,6,士林區,2023/5/8 09:08,25.09896,121.53025,福志路50號(對面),Shilin Dist,YouBike2.0_Fu-Lin Elementary School,No. 50， Fuzhi Rd. (Opposite),8,1,2023/5/8 10:09,2023/5/8 10:09,2023/5/8 09:08,2023/5/8
500104034,YouBike2.0_,中山中正路口,19,10,士林區,2023/5/8 09:22,25.09651,121.52753,中山北路五段609號(前),Shilin Dist,YouBike2.0_Sec. 5， Jhongshan N. Rd & Jhongjheng Rd Intersection,No. 609， Sec. 5， Jhongshan N. Rd.,9,1,2023/5/8 10:09,2023/5/8 10:09,2023/5/8 09:22,2023/5/8
500104035,YouBike2.0_,士林運動中心,30,22,士林區,2023/5/8 10:08,25.08911,121.52154,士商路1號(前),Shilin Dist,YouBike2.0_Shihlin Sport Center,No. 1， Shishang Rd.,7,1,2023/5/8 10:09,2023/5/8 10:09,2023/5/8 10:08,2023/5/8
500104036,YouBike2.0_,陽明高中,36,11,士林區,2023/5/8 08:52,25.09164,121.51706,中正路510號(前),Shilin Dist,YouBike2.0_Yangming High School,No. 510， Zhongzheng Rd.,23,1,2023/5/8 10:09,2023/5/8 10:09,2023/5/8 08:52,2023/5/8
500104037,YouBike2.0_,兒童新樂園,23,9,士林區,2023/5/8 08:07,25.09631,121.51449,承德路五段55號(旁公車亭),Shilin Dist,YouBike2.0_Taipei Children's Amusement Park,No. 55， Sec. 5， Chengde Rd.,14,1,2023/5/8 10:09,2023/5/8 10:09,2023/5/8 08:07,2023/5/8
500104038,YouBike2.0_,臺北市立天文館,31,10,士林區,2023/5/8 08:15,25.09598,121.51776,基河路363號(前),Shilin Dist,YouBike2.0_Taipei Astronomical Museum,No. 363， Jihe Rd.,21,1,2023/5/8 10:09,2023/5/8 10:09,2023/5/8 08:15,2023/5/8
500104039,YouBike2.0_,華聲公園,27,0,士林區,2023/2/3 10:09,25.09619,121.5223,華聲街17號(南側路側),Shilin Dist,YouBike2.0_Huasheng Park,No. 17， Huasheng St. (South),27,0,2023/5/8 10:09,2023/5/8 10:09,2023/2/3 10:09,2023/2/3
500104040,YouBike2.0_,福林公園,17,5,士林區,2023/5/8 09:18,25.09419,121.52833,福林路/中山北路五段(東北側),Shilin Dist,YouBike2.0_Fulin Park,Sec. 5， Zhongshan N. Rd. (Northwest),12,1,2023/5/8 10:09,2023/5/8 10:09,2023/5/8 09:18,2023/5/8
500104041,YouBike2.0_,捷運士林站(2號出口),30,1,士林區,2023/5/8 09:38,25.09343,121.52642,中山北路五段505巷44弄2號(對面),Shilin Dist,YouBike2.0_MRT Shilin Station (Exit 2),No. 2， Aly. 44， Ln. 505， Sec. 5， Zhongshan N. Rd. (Opposite),28,1,2023/5/8 10:09,2023/5/8 10:09,2023/5/8 09:38,2023/5/8
500104042,YouBike2.0_,銘傳大學,30,0,士林區,2023/3/16 20:11,25.08771,121.52677,中山北路五段250號(銘傳大學對側),Shilin Dist,YouBike2.0_Ming Chuan University Taipei Campus,No. 250， Sec. 5， Zhongshan N. Rd.,29,0,2023/5/8 10:09,2023/5/8 10:09,2023/3/16 20:11,2023/3/16
500104043,YouBike2.0_,士林高商,26,7,士林區,2023/5/8 10:02,25.09435,121.51702,士商路150號(校門旁),Shilin Dist,YouBike2.0_Shilin High School of Commerce,No. 150， Shishang Rd.,19,1,2023/5/8 10:09,2023/5/8 10:09,2023/5/8 10:02,2023/5/8
500104044,YouBike2.0_,蘭雅公園,32,16,士林區,2023/5/8 09:50,25.10991,121.53039,忠誠路二段/忠誠路二段40巷(西南側),Shilin Dist,YouBike2.0_Lanya Park,Ln. 40， Sec. 2， Zhongcheng Rd. Intersection (Southwest),16,1,2023/5/8 10:09,2023/5/8 10:09,2023/5/8 09:50,2023/5/8
500104045,YouBike2.0_,聯合醫院陽明院區,15,7,士林區,2023/5/8 08:02,25.10455,121.53195,雨聲街105號(南側),Shilin Dist,YouBike2.0_Taipei City Hospital Yangming Branch,No. 105， Yusheng St. (South),8,1,2023/5/8 10:09,2023/5/8 10:09,2023/5/8 08:02,2023/5/8
500104046,YouBike2.0_,捷運芝山站(1號出口),36,0,士林區,2023/5/8 10:08,25.10225,121.52286,福華路114號(對面),Shilin Dist,YouBike2.0_MRT Zhishan Sta. (Exit 1),No. 114， Fuhua Rd. (Opposite),36,1,2023/5/8 10:09,2023/5/8 10:09,2023/5/8 10:08,2023/5/8
500104047,YouBike2.0_,至誠公園,15,7,士林區,2023/5/8 02:01,25.10143,121.53585,至誠路一段80號(對面),Shilin Dist,YouBike2.0_Zhicheng Park,No. 80， Sec. 1， Zhicheng Rd. (Opposite),8,1,2023/5/8 10:09,2023/5/8 10:09,2023/5/8 02:01,2023/5/8
500104048,YouBike2.0_,原住民文化主題公園,21,4,士林區,2023/5/8 08:42,25.10113,121.55159,至善路二段280號(對面),Shilin Dist,YouBike2.0_Indigenous People's Park,No. 280， Sec. 2， Zhishan Rd. (Opposite),17,1,2023/5/8 10:09,2023/5/8 10:09,2023/5/8 08:42,2023/5/8
500104049,YouBike2.0_,通河東街2段10巷口,15,9,士林區,2023/5/8 00:13,25.09106,121.51502,通河東街2段5號(對面),Shilin Dist,YouBike2.0_Ln. 10， Sec. 2， Tonghe E. St. Intersection,No. 5， Sec. 2， Tonghe E. St. (Opposite),6,1,2023/5/8 10:09,2023/5/8 10:09,2023/5/8 00:13,2023/5/8
500104050,YouBike2.0_,梅林新村,15,6,士林區,2023/5/8 09:25,25.09755,121.54036,至善路一段/至善路一段138巷(北側),Shilin Dist,YouBike2.0_Meilin New Village,Sec. 1， Zhishan Rd & Ln. 138， Sec. 1， Zhishan Rd (North),9,1,2023/5/8 10:09,2023/5/8 10:09,2023/5/8 09:25,2023/5/8
500104051,YouBike2.0_,延平北中正路口,30,11,士林區,2023/5/8 09:44,25.08678,121.50948,中正路613號(對面),Shilin Dist,YouBike2.0_Yanping N. Rd & Zhongzheng Rd Intersection,No. 403， Zhongzheng Rd,19,1,2023/5/8 10:09,2023/5/8 10:09,2023/5/8 09:44,2023/5/8
500104052,YouBike2.0_,重慶北路四段190巷口,13,5,士林區,2023/5/8 06:41,25.08505,121.51166,重慶北路四段198號(前),Shilin Dist,YouBike2.0_Ln. 190， Sec. 4， Chongqing N. Rd Intersection,No. 198， Sec. 4， Chongqing N. Rd,8,1,2023/5/8 10:09,2023/5/8 10:09,2023/5/8 06:41,2023/5/8
500104053,YouBike2.0_,重慶北葫東街口,15,7,士林區,2023/5/8 09:59,25.08393,121.51169,重慶北路四段177號(前),Shilin Dist,YouBike2.0_Sec. 4， Chongqing N. Rd.& Hudong St Intersection,No. 177， Sec. 4， Chongqing N. Rd.,8,1,2023/5/8 10:09,2023/5/8 10:09,2023/5/8 09:59,2023/5/8
500104054,YouBike2.0_,葫蘆國小,20,7,士林區,2023/5/8 09:33,25.08254,121.5075,環河北路三段/葫蘆街(東北側),Shilin Dist,YouBike2.0_Hulu Elementary School,Sec. 3， Huanhe N. Rd & Hulu St. (Northeast),13,1,2023/5/8 10:09,2023/5/8 10:09,2023/5/8 09:33,2023/5/8
500104055,YouBike2.0_,士林3號廣場,30,16,士林區,2023/5/8 09:06,25.10459,121.52417,中山北路六段81號(旁),Shilin Dist,YouBike2.0_Shilin Plaza,No. 81， Sec 6， Zhongshan N. Rd.,14,1,2023/5/8 10:09,2023/5/8 10:09,2023/5/8 09:06,2023/5/8
500104056,YouBike2.0_,社正公園,15,6,士林區,2023/5/8 09:01,25.08824,121.51054,社中街39號(對面),Shilin Dist,YouBike2.0_Shezheng Park,No. 39， Shezhong St. (Opposite),8,1,2023/5/8 10:09,2023/5/8 10:09,2023/5/8 09:01,2023/5/8
500104057,YouBike2.0_,社子國小,15,4,士林區,2023/5/7 13:21,25.09058,121.50142,社中街476號(對面),Shilin Dist,YouBike2.0_Shezi Elementary School,No. 476， Shezhong St. (Opposite),11,1,2023/5/8 10:09,2023/5/8 10:09,2023/5/7 13:21,2023/5/7
500104058,YouBike2.0_,社中街384巷口,18,6,士林區,2023/5/7 23:14,25.09346,121.50376,通河西街二段194號(對面),Shilin Dist,YouBike2.0_Ln. 384， Shezhong St Intersection,No. 194， Sec. 2， Tonghe W. St. (Opposite),12,1,2023/5/8 10:09,2023/5/8 10:09,2023/5/7 23:14,2023/5/7
500104059,YouBike2.0_,忠誠路一段138號,15,5,士林區,2023/5/8 09:56,25.10641,121.52944,忠誠路一段138號(斜前方),Shilin Dist,YouBike2.0_No. 138， Sec. 1， Zhongcheng Rd,No. 138， Sec. 1， Zhongcheng Rd. (Diagonally across),9,1,2023/5/8 10:09,2023/5/8 10:09,2023/5/8 09:56,2023/5/8
500104060,YouBike2.0_,社子公園,14,7,士林區,2023/5/8 08:53,25.0902,121.50622,永平街20巷37弄/永平街20巷11弄(社子公園南側),Shilin Dist,YouBike2.0_Shezi Park,Aly. 37， Ln. 20， Yongping St & Aly. 11， Ln. 20， Yongping St Intersection.,7,1,2023/5/8 10:09,2023/5/8 10:09,2023/5/8 08:53,2023/5/8
500104061,YouBike2.0_,國立故宮博物院,17,5,士林區,2023/5/8 01:05,25.09833,121.54788,力行街8號(對面),Shilin Dist,YouBike2.0_National Palace Museum,No. 8， Lixing St. (Opposite),12,1,2023/5/8 10:09,2023/5/8 10:09,2023/5/8 01:05,2023/5/8
500104062,YouBike2.0_,泰北高中,16,3,士林區,2023/5/8 09:45,25.09763,121.53402,福林路240號(前),Shilin Dist,YouBike2.0_Taibei High School,No. 240， Fulin Rd.,13,1,2023/5/8 10:09,2023/5/8 10:09,2023/5/8 09:45,2023/5/8
500104063,YouBike2.0_,後港公園,15,5,士林區,2023/5/8 08:43,25.09312,121.51419,通河東街二段26號(旁公園),Shilin Dist,YouBike2.0_Hougang Park,No. 26， Sec. 2， Tonghe E. St. (Side),10,1,2023/5/8 10:09,2023/5/8 10:09,2023/5/8 08:43,2023/5/8
500104064,YouBike2.0_,重慶北路四段117號,18,6,士林區,2023/5/8 09:58,25.08279,121.51219,重慶北路四段117號(前),Shilin Dist,YouBike2.0_No. 117， Sec. 4， Chongqing N. Rd,No. 117， Sec. 4， Chongqing N. Rd.,12,1,2023/5/8 10:09,2023/5/8 10:09,2023/5/8 09:58,2023/5/8
500104065,YouBike2.0_,社子島島頭公園,15,6,士林區,2023/5/8 10:01,25.10893,121.46639,延平北路九段323號(後方堤外),Shilin Dist,YouBike2.0_Daotou Park,No. 323， Sec. 9， Yanping N. Rd. (Back),9,1,2023/5/8 10:09,2023/5/8 10:09,2023/5/8 10:01,2023/5/8
500104066,YouBike2.0_,延平北路八段133巷口,15,4,士林區,2023/5/7 23:58,25.10304,121.48297,延平北路八段133巷42號(對面),Shilin Dist,YouBike2.0_Ln. 133， Sec. 8， Yanping N. Rd Intersection,No. 67， Ln. 133， Sec. 8， Yanping N. Rd Intersection. (Opposite),11,1,2023/5/8 10:09,2023/5/8 10:09,2023/5/7 23:58,2023/5/7
500104067,YouBike2.0_,坤天亭,14,2,士林區,2023/5/8 06:46,25.1064,121.4836,延平北路八段96巷15號(前),Shilin Dist,YouBike2.0_Kuntian Temple,No. 15， Ln. 96， Sec. 8， Yanping N. Rd.,12,1,2023/5/8 10:09,2023/5/8 10:09,2023/5/8 06:46,2023/5/8
500104068,YouBike2.0_,社子島濕地解說小築,15,7,士林區,2023/5/8 05:19,25.11314,121.48974,社子島濕地解說小築,Shilin Dist,YouBike2.0_Shezidao Wetlands Service Center,Shezidao Wetlands Service Center,8,1,2023/5/8 10:09,2023/5/8 10:09,2023/5/8 05:19,2023/5/8
500104069,YouBike2.0_,福安國中,11,4,士林區,2023/5/7 16:26,25.10261,121.48819,延平北路七段250號(前),Shilin Dist,YouBike2.0_Fu'an Junior High School,No. 250， Sec. 7， Yanping N. Rd.,7,1,2023/5/8 10:09,2023/5/8 10:09,2023/5/7 16:26,2023/5/7
500104070,YouBike2.0_,福安消防分隊,15,4,士林區,2023/5/7 17:43,25.09669,121.49706,延平北路七段42之7號(對面),Shilin Dist,YouBike2.0_Taipei City Fire Department of Fuan Station,No. 42-7， Sec. 7， Yanping N. Rd. (Opposite),11,1,2023/5/8 10:09,2023/5/8 10:09,2023/5/7 17:43,2023/5/7
500104071,YouBike2.0_,聖山綠地,15,3,士林區,2023/5/8 10:01,25.10696,121.53234,忠義街94號(旁),Shilin Dist,YouBike2.0_Shengshan Greens,No. 94， Zhongyi St.,9,1,2023/5/8 10:09,2023/5/8 10:09,2023/5/8 10:01,2023/5/8
500104072,YouBike2.0_,芝山國小,30,14,士林區,2023/5/8 09:11,25.11044,121.53595,德行東路285號(德行東路283巷側人行道),Shilin Dist,YouBike2.0_Zhishan Elementary School,No. 285， Dexing E. Rd. (Ln. 283， Dexing E. Rd),16,1,2023/5/8 10:09,2023/5/8 10:09,2023/5/8 09:11,2023/5/8
500104073,YouBike2.0_,士林新天地,29,18,士林區,2023/5/8 09:32,25.08899,121.51751,大南路325號前方,Shilin Dist,YouBike2.0_Shilin New Village,No.325， Danan Rd.,10,1,2023/5/8 10:09,2023/5/8 10:09,2023/5/8 09:32,2023/5/8
500104074,YouBike2.0_,蘭雅國小,27,25,士林區,2023/5/8 10:08,25.10775,121.52312,礦溪街與中山北路六段195巷口,Shilin Dist,YouBike2.0_Lanya Elementary School,Huangsi St. & Ln. 195， Sec. 6， Jhongshan N. Rd. Intersection,2,1,2023/5/8 10:09,2023/5/8 10:09,2023/5/8 10:08,2023/5/8
500104075,YouBike2.0_,中正基河路口,28,13,士林區,2023/5/8 09:12,25.0933,121.51962,中正路420號前,Shilin Dist,YouBike2.0_Jhongjheng Rd. & Jihe Rd. Intersection,No. 420， Jhongjheng Rd.,15,1,2023/5/8 10:09,2023/5/8 10:09,2023/5/8 09:12,2023/5/8
500104076,YouBike2.0_,福林公園(中正路),27,12,士林區,2023/5/7 23:43,25.09609,121.53006,中正路/志成街口(南側),Shilin Dist,YouBike2.0_Fulin Park (Jhongjheng Rd.),Jhongjheng Rd. & Jhihcheng St. Intersection (South),15,1,2023/5/8 10:09,2023/5/8 10:09,2023/5/7 23:43,2023/5/7
500104077,YouBike2.0_,至善臨溪路口,22,7,士林區,2023/5/8 08:40,25.09709,121.54229,至善路一段/臨溪路(西南側),Shilin Dist,YouBike2.0_Jhihshan Rd. & Linsi Rd. Intersection,Sec. 1， Jhihshan Rd. & Linsi Rd. Intersection (Southwest),15,1,2023/5/8 10:09,2023/5/8 10:09,2023/5/8 08:40,2023/5/8
500104078,YouBike2.0_,市立圖書館葫蘆堵分館,13,6,士林區,2023/5/8 09:49,25.08217,121.51074,延平北路五段136巷1號前,Shilin Dist,YouBike2.0_Taipei Public Library Huludu Branch,No. 1， Ln. 136， Sec. 5， Yanping N. Rd.,6,1,2023/5/8 10:09,2023/5/8 10:09,2023/5/8 09:49,2023/5/8
500104079,YouBike2.0_,東山路110巷口,16,2,士林區,2023/5/8 08:39,25.11306,121.53945,東山路114號對側,Shilin Dist,YouBike2.0_Ln. 110， Dongshan Rd.,No. 114， Dongshan Rd. (Opposite),14,1,2023/5/8 10:09,2023/5/8 10:09,2023/5/8 08:39,2023/5/8
500104080,YouBike2.0_,永平社會住宅,15,6,士林區,2023/5/7 20:28,25.08887,121.50314,環河北路三段261巷2號,Shilin Dist,YouBike2.0_Yongping Social Housing,No. 2， Ln. 261， Sec. 3， Huanhe N. Rd.,9,1,2023/5/8 10:09,2023/5/8 10:09,2023/5/7 20:28,2023/5/7
500104081,YouBike2.0_,雨農橋,16,8,士林區,2023/5/8 07:38,25.10012,121.53253,福志路14巷42號(對面),Shilin Dist,YouBike2.0_Yunong Bridge,No. 42， Ln. 14， Fuzhi Rd. (Opposite),7,1,2023/5/8 10:09,2023/5/8 10:09,2023/5/8 07:38,2023/5/8
500104082,YouBike2.0_,通河街76巷/承德路四段10巷口,14,3,士林區,2023/5/8 10:07,25.08019,121.5202,承德路四段10巷37號(旁),Shilin Dist,YouBike2.0_Ln. 76， Tonghe St. & Ln. 10， Sec. 4， Chengde Rd. Intersection,No. 37， Ln. 10， Sec. 4， Chengde Rd.,7,1,2023/5/8 10:09,2023/5/8 10:09,2023/5/8 10:07,2023/5/8
500104083,YouBike2.0_,芝山聖佑宮,15,4,士林區,2023/5/8 04:18,25.10455,121.53025,雨聲街90號旁,Shilin Dist,YouBike2.0_Zhishan Shengyou Temple,No. 90， Yusheng St.,11,1,2023/5/8 10:09,2023/5/8 10:09,2023/5/8 04:18,2023/5/8
500104084,YouBike2.0_,至誠雨聲街口,9,6,士林區,2023/5/8 08:59,25.10199,121.52927,至誠路二段與雨聲街口東北側,Shilin Dist,YouBike2.0_Zhicheng Rd. & Yusheng St. Intersection,Sec. 2， Zhicheng Rd. & Yusheng St. Intersection (Northeast),3,1,2023/5/8 10:09,2023/5/8 10:09,2023/5/8 08:59,2023/5/8
500104085,YouBike2.0_,捷運線型公園(後街),13,2,士林區,2023/5/8 10:01,25.09812,121.52449,後街15號旁,Shilin Dist,YouBike2.0_MRT Linear Park (Hou St.),No. 15， Hou St.,11,1,2023/5/8 10:09,2023/5/8 10:09,2023/5/8 10:01,2023/5/8
500104086,YouBike2.0_,天母公園,12,7,士林區,2023/5/8 06:21,25.12408,121.53003,中山北路七段141巷30號對側,Shilin Dist,YouBike2.0_Tianmu Park,No. 30， Ln. 141， Sec. 7， Zhongshan N. Rd. (Opposite),5,1,2023/5/8 10:09,2023/5/8 10:09,2023/5/8 06:21,2023/5/8
500104087,YouBike2.0_,基河文林路口,16,6,士林區,2023/5/8 09:54,25.08637,121.5247,基河路3-1號對側人行道,Shilin Dist,YouBike2.0_Jihe Rd. & Wenlin Rd. Intersection,No. 3-1， Jihe Rd. (Opposite),10,1,2023/5/8 10:09,2023/5/8 10:09,2023/5/8 09:54,2023/5/8
500104088,YouBike2.0_,文林福華路口,19,6,士林區,2023/5/8 09:53,25.10094,121.52243,文林路 / 福華路口(東側),Shilin Dist,YouBike2.0_Wenlin Rd. & Fude Rd. Intersection,Wenlin Rd. & Fude Rd. Intersection (East),13,1,2023/5/8 10:09,2023/5/8 10:09,2023/5/8 09:53,2023/5/8
500104089,YouBike2.0_,劍潭海外青年活動中心_1,24,19,士林區,2023/5/8 08:54,25.0796,121.5237,通河街 / 通河街2巷(南側),Shilin Dist,YouBike2.0_Chientan Overseas Youth Activity Center_1,Tonghe St. & Ln. 2， Tonghe St.,5,1,2023/5/8 10:09,2023/5/8 10:09,2023/5/8 08:54,2023/5/8
500104090,YouBike2.0_,社子國小_1,20,9,士林區,2023/5/7 23:07,25.09029,121.50189,延平北路六段/社中街(社子國小對面跨提便道橋下),Shilin Dist,YouBike2.0_SheZi Elementary School,Sec. 6， Yanping N. Rd./Shezhong St. Intersection (South),11,1,2023/5/8 10:09,2023/5/8 10:09,2023/5/7 23:07,2023/5/7
500104091,YouBike2.0_,捷運劍潭站(1號出口),70,32,士林區,2023/5/8 09:52,25.08577,121.52531,捷運劍潭站(1號出口)北側,Shilin Dist,YouBike2.0_MRT Jianta Sta. (Exit 1),MRT Jianta Sta. (Exit 1) (North),38,1,2023/5/8 10:09,2023/5/8 10:09,2023/5/8 09:52,2023/5/8
500104092,YouBike2.0_,德行東山路口,12,6,士林區,2023/5/8 07:22,25.1107,121.53999,德行東路/東山路(西北側),Shilin Dist,YouBike2.0_Dexing Rd. & Dongshan Rd. Intersection,Dexing E. Rd. & Dongshan Rd. Intersection (Northwest),6,1,2023/5/8 10:09,2023/5/8 10:09,2023/5/8 07:22,2023/5/8
500104094,YouBike2.0_,重慶北通河西街口,12,2,士林區,2023/5/8 08:57,25.08756,121.51177,重慶北路四段276號(前),Shilin Dist,YouBike2.0_Chongqing N. Rd. & Tonghe W. St. Intersection,No. 276， Sec. 4， Chongqing N. Rd.,10,1,2023/5/8 10:09,2023/5/8 10:09,2023/5/8 08:57,2023/5/8
500104095,YouBike2.0_,葫蘆國小(延平北路五段285巷),15,8,士林區,2023/5/8 08:34,25.08406,121.5067,環河北路三段/延平北路五段285巷,Shilin Dist,YouBike2.0_Hulu Elementary School (Ln. 285， Sec. 5， Yanping N. Rd.),Sec. 3， Huanhe N. Rd. & Ln. 285， Sec. 5， Yanping N. Rd. Intersection,7,1,2023/5/8 10:09,2023/5/8 10:09,2023/5/8 08:34,2023/5/8
500104096,YouBike2.0_,社子市場,15,6,士林區,2023/5/8 00:02,25.0881,121.50873,延平北路六段67號旁,Shilin Dist,YouBike2.0_Shezi Market,No. 67， Sec. 6， Yanping N. Rd.,9,1,2023/5/8 10:09,2023/5/8 10:09,2023/5/8 00:02,2023/5/8
500104097,YouBike2.0_,士林區農會社子分部,8,4,士林區,2023/5/8 09:53,25.08912,121.5049,社子街162號旁,Shilin Dist,YouBike2.0_Shilin District Farmers' Association (Shezi St.),No. 162， Shezi St.,4,1,2023/5/8 10:09,2023/5/8 10:09,2023/5/8 09:53,2023/5/8
500104098,YouBike2.0_,承德劍潭路口,19,8,士林區,2023/5/8 09:45,25.0841,121.52341,承德路四段與劍潭路口西側,Shilin Dist,YouBike2.0_Chengde Rd. & Jiantan Rd. Intersection,Sec. 4， Chengde Rd. & Jiantan Rd. Intersection (West),11,1,2023/5/8 10:09,2023/5/8 10:09,2023/5/8 09:45,2023/5/8
500104099,YouBike2.0_,文林路101巷口,7,6,士林區,2023/5/8 09:49,25.08761,121.52608,文林路100號前,Shilin Dist,YouBike2.0_Ln. 101， Wenlin Rd.,No. 100， Wenlin Rd.,1,1,2023/5/8 10:09,2023/5/8 10:09,2023/5/8 09:49,2023/5/8
500104100,YouBike2.0_,延平北路五段257巷15弄口,13,2,士林區,2023/5/8 08:09,25.08408,121.50959,葫蘆街184號對側,Shilin Dist,YouBike2.0_Aly. 15， Ln. 257， Sec. 5， Yanping N. Rd.,No. 184， Hulu St.,11,1,2023/5/8 10:09,2023/5/8 10:09,2023/5/8 08:09,2023/5/8
500104101,YouBike2.0_,延平北路五段257巷4弄口,15,5,士林區,2023/5/7 22:59,25.08471,121.5089,延平北路五段257巷17號前,Shilin Dist,YouBike2.0_Aly. 4， Ln. 257， Sec. 5， Yanping N. Rd.,No. 17， Ln. 257， Sec. 5， Yanping N. Rd.,10,1,2023/5/8 10:09,2023/5/8 10:09,2023/5/7 22:59,2023/5/7
500104102,YouBike2.0_,啟明學校,16,1,士林區,2023/5/8 09:54,25.11742,121.53472,忠誠路二段200號(新光三越天母店)對側,Shilin Dist,YouBike2.0_Taipei School For The Visually Impaired,No. 200， Sec. 2， Zhongcheng Rd. (Opposite),15,1,2023/5/8 10:09,2023/5/8 10:09,2023/5/8 09:54,2023/5/8
500104103,YouBike2.0_,中山福國路口,14,8,士林區,2023/5/7 22:08,25.10203,121.52561,中山北路五段837號前,Shilin Dist,YouBike2.0_Zhongshan N. Rd. & Fuguo Rd. Intersection,No. 837， Sec. 5， Zhongshan N. Rd.,5,1,2023/5/8 10:09,2023/5/8 10:09,2023/5/7 22:08,2023/5/7
500104104,YouBike2.0_,德行公園,14,8,士林區,2023/5/8 09:23,25.10585,121.52376,德行西路33號對側,Shilin Dist,YouBike2.0_Dexing Park,No. 33， Dexing W. Rd. (Opposite),6,1,2023/5/8 10:09,2023/5/8 10:09,2023/5/8 09:23,2023/5/8
500104105,YouBike2.0_,承德後港街口,11,2,士林區,2023/5/8 10:01,25.08238,121.52309,承德路四段/後港街口,Shilin Dist,YouBike2.0_Chengde Rd & Hougang St. Intersection,Sec. 4， Chengde Rd & Hougang St. Intersection,8,1,2023/5/8 10:09,2023/5/8 10:09,2023/5/8 10:01,2023/5/8
500104106,YouBike2.0_,中山北路五段698巷口,15,11,士林區,2023/5/8 07:02,25.09765,121.52757,中山北路五段692號前,Shilin Dist,YouBike2.0_Ln. 698， Sec. 5， Zhongshan N. Rd.,No. 692， Sec. 5， Zhongshan N. Rd.,4,1,2023/5/8 10:09,2023/5/8 10:09,2023/5/8 07:02,2023/5/8
500104107,YouBike2.0_,捷運士林站(1號出口),38,16,士林區,2023/5/8 10:01,25.09561,121.52552,中正路236巷/中正路口,Shilin Dist,YouBike2.0_MRT Shilin Sta. (Exit 1),Ln. 236， Zhongzheng Rd. & Zhongzheng Rd. Intersection,22,1,2023/5/8 10:09,2023/5/8 10:09,2023/5/8 10:01,2023/5/8
500104108,YouBike2.0_,捷運芝山站(2號出口)_1,62,5,士林區,2023/5/8 10:06,25.10336,121.52263,福華路/福華路162巷(東南側),Shilin Dist,YouBike2.0_MRT Zhishan Sta. (Exit 2)_1,Fuhua Rd. & Ln. 162， Fuhua Rd. Intersection (Southeast),57,1,2023/5/8 10:09,2023/5/8 10:09,2023/5/8 10:06,2023/5/8
500104109,YouBike2.0_,銘傳大學(中山北路五段280巷口),23,15,士林區,2023/5/8 09:22,25.08762,121.52711,中山北路五段280巷口,Shilin Dist,YouBike2.0_MCU (Ln. 280， Sec. 5， Zhongshan N. Rd.),Ln. 280， Sec. 5， Zhongshan N. Rd.,8,1,2023/5/8 10:09,2023/5/8 10:09,2023/5/8 09:22,2023/5/8
500104110,YouBike2.0_,海光公園南側,12,3,士林區,2023/5/8 07:40,25.08036,121.5084,葫蘆街79號對側公園,Shilin Dist,YouBike2.0_Haiguang Park (South),No. 79， Hulu St. (Opposite),9,1,2023/5/8 10:09,2023/5/8 10:09,2023/5/8 07:40,2023/5/8
500104111,YouBike2.0_,士商路40巷口,15,6,士林區,2023/5/8 08:57,25.09013,121.52054,士商路40巷2號旁,Shilin Dist,YouBike2.0_Ln. 40， Shishang Rd.,No. 2， Ln. 40， Shishang Rd.,8,1,2023/5/8 10:09,2023/5/8 10:09,2023/5/8 08:57,2023/5/8
500104112,YouBike2.0_,劍潭郵局,16,7,士林區,2023/5/8 08:49,25.08182,121.52431,基河路/承德路四段77巷口(捷運橋下),Shilin Dist,YouBike2.0_Shihlin Jiantan Post Office,Jihe Rd. & Ln. 77， Sec. 4， Chengde Rd. Intersection (Under Bridge),9,1,2023/5/8 10:09,2023/5/8 10:09,2023/5/8 08:49,2023/5/8
500104113,YouBike2.0_,士東路91巷口,16,9,士林區,2023/5/8 09:30,25.11247,121.52914,士東路91巷3號旁,Shilin Dist,YouBike2.0_Ln. 91， Shidong Rd.,No. 3， Ln. 91， Shidong Rd.,2,1,2023/5/8 10:09,2023/5/8 10:09,2023/5/8 09:30,2023/5/8
500104114,YouBike2.0_,美崙公園,13,9,士林區,2023/5/8 08:15,25.09677,121.51931,美崙街118號斜對面人行道,Shilin Dist,YouBike2.0_Meilun Park,No. 118， Meilun St. (Opposite),4,1,2023/5/8 10:09,2023/5/8 10:09,2023/5/8 08:15,2023/5/8
500104115,YouBike2.0_,臺北市立大學(忠誠路二段207巷),17,12,士林區,2023/5/8 09:50,25.11642,121.53743,忠誠路二段207巷/士東路299巷口,Shilin Dist,YouBike2.0_University of Taipei (Ln. 270， Sec. 2， Zhongcheng Rd.),Ln. 270， Sec. 2， Zhongcheng Rd. & Ln. 299， Shidong Rd. Intersection,5,1,2023/5/8 10:09,2023/5/8 10:09,2023/5/8 09:50,2023/5/8
500104116,YouBike2.0_,天母東路8巷/忠誠路二段154巷口,14,8,士林區,2023/5/8 07:59,25.11579,121.53113,天母東路8巷57號對側,Shilin Dist,YouBike2.0_Ln. 8， Tianmu E. Rd. & Ln. 154， Sec. 2， Zhongcheng Rd. Intersection,No. 57， Ln. 8， Tianmu E. Rd. (Opposite),4,1,2023/5/8 10:09,2023/5/8 10:09,2023/5/8 07:59,2023/5/8
500104117,YouBike2.0_,美崙公園(東北側),15,5,士林區,2023/5/8 07:09,25.09886,121.51835,文林路587巷115號對側,Shilin Dist,YouBike2.0_Meilun Park (Northeast),No. 115， Ln. 587， Wenlin Rd. (Opposite),10,1,2023/5/8 10:09,2023/5/8 10:09,2023/5/8 07:09,2023/5/8
500105001,YouBike2.0_,台北花木批發市場,32,3,文山區,2023/5/8 10:08,25.00402,121.54074,萬盛街/興隆路一段(西北側),Wenshan Dist,YouBike2.0_Taipei Pot Plant Market,Wancheng St. & Sec. 1， Xinrong Rd. (Northwest),29,1,2023/5/8 10:09,2023/5/8 10:09,2023/5/8 10:08,2023/5/8
500105002,YouBike2.0_,捷運萬隆站(4號出口),21,10,文山區,2023/5/8 10:06,25.0027,121.53861,羅斯福路5段210號(前),Wenshan Dist,YouBike2.0_MRT Wanlong Sta. (Exit 4),No. 210， Sec. 5， Roosevelt Rd.,11,1,2023/5/8 10:09,2023/5/8 10:09,2023/5/8 10:06,2023/5/8
500105003,YouBike2.0_,捷運萬隆站(1號出口),34,9,文山區,2023/5/8 09:58,25.00115,121.53916,羅斯福路五段250號(前),Wenshan Dist,YouBike2.0_MRT Wanlong Sta. (Exit 1),No. 250， Sec. 5， Roosevelt Rd.,25,1,2023/5/8 10:09,2023/5/8 10:09,2023/5/8 09:58,2023/5/8
500105004,YouBike2.0_,萬和二號公園,26,6,文山區,2023/5/8 09:54,25.00154,121.5364,萬隆街255號(對面),Wenshan Dist,YouBike2.0_Wanhe 2nd Park,No. 255， Wanlong St.,20,1,2023/5/8 10:09,2023/5/8 10:09,2023/5/8 09:54,2023/5/8
500105005,YouBike2.0_,捷運萬隆站(2號出口),12,9,文山區,2023/5/8 09:52,25.00144,121.53983,興隆路一段70巷/羅斯福路5段211巷26弄口,Wenshan Dist,YouBike2.0_MRT Wanlong Sta. (Exit 2),Ln. 70， Sec. 1， Xinrong Rd. & Aly. 26， Ln. 211， Sec. 5， Roosevelt Rd.,3,1,2023/5/8 10:09,2023/5/8 10:09,2023/5/8 09:52,2023/5/8
500105006,YouBike2.0_,景仁公園,16,8,文山區,2023/5/8 08:25,24.99621,121.54043,羅斯福路六段142巷1號(旁),Wenshan Dist,YouBike2.0_Jingren Park,No. 1， Ln. 142， Sec. 6， Roosevelt Rd.,8,1,2023/5/8 10:09,2023/5/8 10:09,2023/5/8 08:25,2023/5/8
500105007,YouBike2.0_,捷運景美站(2號出口),63,31,文山區,2023/5/8 09:59,24.99366,121.54124,景文街1號(對面),Wenshan Dist,YouBike2.0_MRT Jingmei Sta. (Exit 2),No. 1， Jingwen St. (Opposite),32,1,2023/5/8 10:09,2023/5/8 10:09,2023/5/8 09:59,2023/5/8
500105008,YouBike2.0_,羅斯福景隆街口,20,9,文山區,2023/5/8 09:59,24.99898,121.5403,羅斯福路六段/景隆街口(東南側),Wenshan Dist,YouBike2.0_Roosevelt Jinglong St. Intersection,Sec. 6， Roosevelt Rd. & Jinglong St. Intersection (Southeast),11,1,2023/5/8 10:09,2023/5/8 10:09,2023/5/8 09:59,2023/5/8
500105009,YouBike2.0_,景福街/羅斯福路6段142巷口,28,7,文山區,2023/5/8 09:59,24.99812,121.53663,景福街/羅斯福路6段142巷口,Wenshan Dist,YouBike2.0_Jingfu St & Ln. 142， Sec. 6， Roosevelt Rd Intersection,Jingfu St & Ln. 142， Sec. 6， Roosevelt Rd Intersection.,21,1,2023/5/8 10:09,2023/5/8 10:09,2023/5/8 09:59,2023/5/8
500105010,YouBike2.0_,興旺公園,30,7,文山區,2023/5/8 09:45,25.00587,121.55012,福興路106巷28弄96號(對面),Wenshan Dist,YouBike2.0_Xingwang Park,No. 96， Aly. 28， Ln. 106， Fuxing Rd. (Opposite),23,1,2023/5/8 10:09,2023/5/8 10:09,2023/5/8 09:45,2023/5/8
500105011,YouBike2.0_,興福國中,25,9,文山區,2023/5/8 09:21,25.00465,121.54916,福興路95巷/福興路63巷4弄口,Wenshan Dist,YouBike2.0_Xing Fu Junior High School,Ln. 95， Fuxing Rd & Aly. 28， Ln. 63， Fuxing Rd. (Opposite),16,1,2023/5/8 10:09,2023/5/8 10:09,2023/5/8 09:21,2023/5/8
500105012,YouBike2.0_,興隆路2段203巷,32,12,文山區,2023/5/8 09:45,25.00346,121.54709,興隆路2段203巷108號(對面),Wenshan Dist,YouBike2.0_Ln. 203， Sec. 2， Xinglong Rd,No. 108， Ln. 203， Sec. 2， Xinglong Rd (Opposite),20,1,2023/5/8 10:09,2023/5/8 10:09,2023/5/8 09:45,2023/5/8
500105013,YouBike2.0_,景美運動公園,11,3,文山區,2023/5/8 07:50,25.00219,121.54454,景豐街79號(旁公園),Wenshan Dist,YouBike2.0_Jingmei Sports Park,No. 79， Jingfeng St. (Side),8,1,2023/5/8 10:09,2023/5/8 10:09,2023/5/8 07:50,2023/5/8
500105014,YouBike2.0_,景美醫院,18,5,文山區,2023/5/8 08:34,24.99136,121.54008,羅斯福路六段280號(前),Wenshan Dist,YouBike2.0_Jing Mei Hospital,No. 280， Sec. 6， Roosevelt Rd.,13,1,2023/5/8 10:09,2023/5/8 10:09,2023/5/8 08:34,2023/5/8
500105015,YouBike2.0_,師範大學公館校區,14,9,文山區,2023/5/8 10:06,25.00792,121.53731,汀州路四段77號(旁),Wenshan Dist,YouBike2.0_National Taiwan Normal University Gongguan Campus,No. 77， Sec. 4， Tingzhou Rd.,5,1,2023/5/8 10:09,2023/5/8 10:09,2023/5/8 10:06,2023/5/8
500105016,YouBike2.0_,景華街128巷口,20,6,文山區,2023/5/8 09:55,24.99543,121.54725,景華街124號(旁汽車格),Wenshan Dist,YouBike2.0_Ln 128， Jinghua St.,No. 124， Jinghua St.,14,1,2023/5/8 10:09,2023/5/8 10:09,2023/5/8 09:55,2023/5/8
500105017,YouBike2.0_,仙跡岩登山口(景興路),22,4,文山區,2023/5/8 09:33,24.99118,121.5436,景興街239號(前),Wenshan Dist,YouBike2.0_Xianjiyan Trailhead (Jingxing Rd.),No. 239， Jingxing Rd.,18,1,2023/5/8 10:09,2023/5/8 10:09,2023/5/8 09:33,2023/5/8
500105018,YouBike2.0_,國立政治大學,35,3,文山區,2023/5/8 10:03,24.98737,121.57726,指南路二段153號(對面),Wenshan Dist,YouBike2.0_National Chengchi University,No. 153， Sec. 2， Zhinan Rd. (Opposite),32,1,2023/5/8 10:09,2023/5/8 10:09,2023/5/8 10:03,2023/5/8
500105019,YouBike2.0_,捷運動物園站,18,9,文山區,2023/5/8 00:21,24.99873,121.57985,新光路二段30號(對面),Wenshan Dist,YouBike2.0_MRT Taipei Zoo Sta.,No. 30， Sec. 2， Xinguang Rd. (Opposite),9,1,2023/5/8 10:09,2023/5/8 10:09,2023/5/8 00:21,2023/5/8
500105020,YouBike2.0_,捷運木柵站,31,8,文山區,2023/5/8 01:35,24.99798,121.57455,木柵路四段82巷18號前(捷運橋樑下),Wenshan Dist,YouBike2.0_MRT Muzha Sta.,No. 18， Ln. 82， Sec. 4， Muzha Rd. (Under The MRT Bridge),23,1,2023/5/8 10:09,2023/5/8 10:09,2023/5/8 01:35,2023/5/8
500105021,YouBike2.0_,捷運萬芳社區站,31,15,文山區,2023/5/8 10:09,24.99886,121.56769,萬芳路60號(西側廣場),Wenshan Dist,YouBike2.0_MRT Wanfang Community Sta.,No. 60， Wanfang Rd. (West),16,1,2023/5/8 10:09,2023/5/8 10:09,2023/5/8 10:09,2023/5/8
500105022,YouBike2.0_,文山運動中心,20,8,文山區,2023/5/8 09:18,24.99676,121.5596,興隆路三段/興隆路三段192巷8弄,Wenshan Dist,YouBike2.0_Wen Shan Sports Center,Sec. 3， Xinglong Rd./Aly. 8， Ln. 192， Sec. 3， Xinglong Rd.,12,1,2023/5/8 10:09,2023/5/8 10:09,2023/5/8 09:18,2023/5/8
500105023,YouBike2.0_,捷運辛亥站,29,1,文山區,2023/5/8 09:45,25.00467,121.55684,辛亥路四段114號(旁人行道),Wenshan Dist,YouBike2.0_MRT Xinhai Sta.,No. 114， Sec. 4， Xinhai Rd.,28,1,2023/5/8 10:09,2023/5/8 10:09,2023/5/8 09:45,2023/5/8
500105024,YouBike2.0_,興豐公園,21,4,文山區,2023/5/8 09:50,24.99982,121.54761,興隆路二段123巷/興隆路二段(西北側),Wenshan Dist,YouBike2.0_Xingfeng Park,Ln. 123， Sec. 2， Xinglong Rd./Sec. 2， Xinglong Rd. (Northwest),17,1,2023/5/8 10:09,2023/5/8 10:09,2023/5/8 09:50,2023/5/8
500105025,YouBike2.0_,木柵光輝路口,19,3,文山區,2023/5/8 09:33,24.98816,121.55528,木柵路一段290號(旁),Wenshan Dist,YouBike2.0_Muzha Rd. & Guanghui Rd. Intersection,No. 290， Sec. 1， Muzha Rd.,16,1,2023/5/8 10:09,2023/5/8 10:09,2023/5/8 09:33,2023/5/8
500105026,YouBike2.0_,考試院,22,3,文山區,2023/5/8 08:43,24.98747,121.54984,試院路(雙號)/木柵路一段(東北側),Wenshan Dist,YouBike2.0_Examination Yuan,Shiyuan Rd.(Double number)/ Sec. 1， Muzha Rd. (Northeast),19,1,2023/5/8 10:09,2023/5/8 10:09,2023/5/8 08:43,2023/5/8
500105027,YouBike2.0_,和興路26巷口,15,11,文山區,2023/5/8 00:10,24.98573,121.54532,和興路44巷 / 和興路26巷口,Wenshan Dist,YouBike2.0_No. 26， Hexing St. Intersection,No. 44， Hexing St./No. 26， Hexing St. Intersection,4,1,2023/5/8 10:09,2023/5/8 10:09,2023/5/8 00:10,2023/5/8
500105028,YouBike2.0_,世新大學,30,4,文山區,2023/5/8 09:21,24.98859,121.54336,木柵路一段17巷1號(西側),Wenshan Dist,YouBike2.0_Shih Hsin University,No. 1， Ln. 17， Sec. 1， Muzha Rd. (West),26,1,2023/5/8 10:09,2023/5/8 10:09,2023/5/8 09:21,2023/5/8
500105029,YouBike2.0_,一壽橋,16,6,文山區,2023/5/8 08:50,24.97837,121.55548,樟新街64號前方,Wenshan Dist,YouBike2.0_Yishou Bridge,No. 64， Zhangxin St.,10,1,2023/5/8 10:09,2023/5/8 10:09,2023/5/8 08:50,2023/5/8
500105030,YouBike2.0_,臺北市立景美女中,25,17,文山區,2023/5/8 09:44,24.98058,121.55624,木新路三段/一壽街(西北側),Wenshan Dist,YouBike2.0_Jingmei Girls High School,Sec. 3， Muxin Rd./Yishou St. (Northwest),8,1,2023/5/8 10:09,2023/5/8 10:09,2023/5/8 09:44,2023/5/8
500105031,YouBike2.0_,永安藝文館-表演36房,15,7,文山區,2023/5/8 09:01,24.98414,121.56907,木新路二段156號前人行道(永安市場),Wenshan Dist,YouBike2.0_Performing Arts School 36,No. 156， Sec. 2， Muxin Rd. (Yongan Market),8,1,2023/5/8 10:09,2023/5/8 10:09,2023/5/8 09:01,2023/5/8
500105032,YouBike2.0_,忠順區民活動中心,15,6,文山區,2023/5/8 09:01,24.98471,121.56332,忠順街二段22號前方人行道(忠順區民活動中心),Wenshan Dist,YouBike2.0_Zhongshun Community Center,No. 22， Sec. 2， Zhongshun St.,9,1,2023/5/8 10:09,2023/5/8 10:09,2023/5/8 09:01,2023/5/8
500105033,YouBike2.0_,景文中學,36,8,文山區,2023/5/8 07:32,24.98574,121.56745,保儀路/木柵路三段102巷口(西南側),Wenshan Dist,YouBike2.0_Jingwen Bilingual High School,Baoyi Rd./Ln. 102， Sec. 3， Muxin Rd. Intersection (Southwest),28,1,2023/5/8 10:09,2023/5/8 10:09,2023/5/8 07:32,2023/5/8
500105034,YouBike2.0_,老泉街籃球場,14,6,文山區,2023/5/7 12:47,24.97619,121.5583,老泉街26巷老泉街口(籃球場前),Wenshan Dist,YouBike2.0_Laoquan St. Basketball Court,Ln. 26， Laoquan St. Intersection,8,1,2023/5/8 10:09,2023/5/8 10:09,2023/5/7 12:47,2023/5/7
500105035,YouBike2.0_,文山行政中心,18,2,文山區,2023/5/8 09:05,24.98959,121.56959,木柵路三段220號(前),Wenshan Dist,YouBike2.0_Wenshan District Admin. Center,No. 220， Sec. 3， Muzha Rd.,16,1,2023/5/8 10:09,2023/5/8 10:09,2023/5/8 09:05,2023/5/8
500105036,YouBike2.0_,木柵公園,25,9,文山區,2023/5/8 09:47,24.98718,121.56059,興隆路四段50號(前),Wenshan Dist,YouBike2.0_Muzha Park,No. 50， Sec. 4， Xinglong Rd.,16,1,2023/5/8 10:09,2023/5/8 10:09,2023/5/8 09:47,2023/5/8
500105037,YouBike2.0_,興隆公共住宅D2區,19,2,文山區,2023/5/7 23:10,24.98814,121.56356,興隆路四段105巷49號(旁),Wenshan Dist,YouBike2.0_Xinglong Public Housing (D2),No. 49， Ln. 105， Sec. 4， Xinglong Rd.,17,1,2023/5/8 10:09,2023/5/8 10:09,2023/5/7 23:10,2023/5/7
500105038,YouBike2.0_,木新路3段95巷口,16,4,文山區,2023/5/8 08:45,24.98088,121.56313,木新路三段95巷30號(對面),Wenshan Dist,YouBike2.0_Ln. 95， Sec. 3， Muxin Rd. Intersection,No. 30， Ln. 95， Sec. 3， Muxin Rd. (Opposite),12,1,2023/5/8 10:09,2023/5/8 10:09,2023/5/8 08:45,2023/5/8
500105039,YouBike2.0_,樟腳里公園,15,5,文山區,2023/5/8 09:25,24.98181,121.56567,木新路二段299巷15號(旁),Wenshan Dist,YouBike2.0_Zhangjiaoli Park,No. 15， Ln. 299， Sec. 2， Muxin Rd. (Opposite),10,1,2023/5/8 10:09,2023/5/8 10:09,2023/5/8 09:25,2023/5/8
500105040,YouBike2.0_,實踐國中,14,7,文山區,2023/5/8 09:43,24.98301,121.55404,忠順街一段2號(旁),Wenshan Dist,YouBike2.0_Shijian Junior High School,No. 2， Sec. 1， Zhongshun St.,7,1,2023/5/8 10:09,2023/5/8 10:09,2023/5/8 09:43,2023/5/8
500105041,YouBike2.0_,指南路3段2巷,13,2,文山區,2023/5/8 05:55,24.98537,121.57959,指南路三段4號(旁),Wenshan Dist,YouBike2.0_Ln. 2， Sec. 3， Zhinan Rd.,No. 4， Sec. 3， Zhinan Rd.,11,1,2023/5/8 10:09,2023/5/8 10:09,2023/5/8 05:55,2023/5/8
500105042,YouBike2.0_,萊茵公園,14,5,文山區,2023/5/7 22:51,24.98642,121.56514,忠順街二段87巷25弄29號,Wenshan Dist,YouBike2.0_Laiyin Park,No. 29， Aly. 25， Ln. 87， Sec. 2， Zhongshun St.,9,1,2023/5/8 10:09,2023/5/8 10:09,2023/5/7 22:51,2023/5/7
500105043,YouBike2.0_,木柵社會住宅,12,5,文山區,2023/5/8 09:31,24.98935,121.56651,久康街24巷46號對側,Wenshan Dist,YouBike2.0_Muzha Social Housing,No. 46， Ln. 24， Jiukang St. (Opposite),7,1,2023/5/8 10:09,2023/5/8 10:09,2023/5/8 09:31,2023/5/8
500105044,YouBike2.0_,秀明路一段185巷口,20,8,文山區,2023/5/8 07:51,24.99151,121.56836,秀明路一段與秀明路一段185巷口,Wenshan Dist,YouBike2.0_Ln. 185， Sec. 1， Xiuming Rd. Intersection,Sec. 1， Xiuming Rd. & Ln. 185， Sec. 1， Xiuming Rd. Intersection,11,1,2023/5/8 10:09,2023/5/8 10:09,2023/5/8 07:51,2023/5/8
500105045,YouBike2.0_,秀明路一段129巷口,22,5,文山區,2023/5/8 08:56,24.99111,121.56703,秀明路一段129巷與秀明路一段路口,Wenshan Dist,YouBike2.0_Ln. 129， Sec. 1， Xiuming Rd. Intersection,Ln. 129， Sec. 1， Xiuming Rd. & Sec. 1， Xiuming Rd. Intersection,17,1,2023/5/8 10:09,2023/5/8 10:09,2023/5/8 08:56,2023/5/8
500105046,YouBike2.0_,恆光橋(老泉街),13,2,文山區,2023/5/8 07:50,24.97989,121.56753,老泉街/恆光街口,Wenshan Dist,YouBike2.0_Hengguang Bridge (Laoquan St.),Laoquan St. & Hengguang St. Intersection,11,1,2023/5/8 10:09,2023/5/8 10:09,2023/5/8 07:50,2023/5/8
500105047,YouBike2.0_,萬有3號公園,14,4,文山區,2023/5/8 09:43,24.99889,121.5433,景隆街105號(對面),Wenshan Dist,YouBike2.0_Wan You NO.3 Park,No. 105， Jinglong St. (Opposite),10,1,2023/5/8 10:09,2023/5/8 10:09,2023/5/8 09:43,2023/5/8
500105048,YouBike2.0_,捷運萬芳醫院站(興隆路三段115巷),20,2,文山區,2023/5/8 08:22,24.99939,121.55848,興隆路三段115巷2號,Wenshan Dist,YouBike2.0_MRT Wanfang Hospital Sta. (Ln. 115， Sec. 3， Xinglong Rd.),No. 2， Ln. 115， Sec. 3， Xinglong Rd.,17,1,2023/5/8 10:09,2023/5/8 10:09,2023/5/8 08:22,2023/5/8
500105049,YouBike2.0_,興得閱覽室,24,6,文山區,2023/5/8 09:23,24.99579,121.55498,興隆路三段304巷145號,Wenshan Dist,YouBike2.0_Xingde Reading Room,No. 145， Ln. 304， Sec. 3， Xinglong Rd.,18,1,2023/5/8 10:09,2023/5/8 10:09,2023/5/8 09:23,2023/5/8
500105050,YouBike2.0_,辛亥生態公園,18,2,文山區,2023/5/8 05:31,25.00348,121.55642,辛亥路四段199號,Wenshan Dist,YouBike2.0_Xinhai Ecological Park,No. 199， Sec. 4， Xinhai Rd.,16,1,2023/5/8 10:09,2023/5/8 10:09,2023/5/8 05:31,2023/5/8
500105051,YouBike2.0_,博嘉運動公園,12,5,文山區,2023/5/7 11:48,25.00079,121.57534,木柵路四段159巷16號,Wenshan Dist,YouBike2.0_Bo Jia Sports Park,No. 16， Ln. 159， Sec. 4， Muzha Rd.,7,1,2023/5/8 10:09,2023/5/8 10:09,2023/5/7 11:48,2023/5/7
500105052,YouBike2.0_,國立政治大學(萬壽路),56,4,文山區,2023/5/8 05:50,24.98841,121.57649,萬壽路16巷6號(前),Wenshan Dist,YouBike2.0_National Chengchi University (Wanshou Rd.),No.6， Ln. 16， Wanshou Rd.,52,1,2023/5/8 10:09,2023/5/8 10:09,2023/5/8 05:50,2023/5/8
500105053,YouBike2.0_,仙岩公園,11,5,文山區,2023/5/8 09:39,24.99797,121.54982,仙岩路16巷37號旁,Wenshan Dist,YouBike2.0_Sian Yan Park,No. 37， Ln. 16， Xianyan Rd.,6,1,2023/5/8 10:09,2023/5/8 10:09,2023/5/8 09:39,2023/5/8
500105054,YouBike2.0_,政大一街口,14,2,文山區,2023/5/7 19:24,24.98543,121.58006,政大一街19號對側,Wenshan Dist,YouBike2.0_Zhengda 1st St.,No. 19， Zhengda 1st St. (Opposite),12,1,2023/5/8 10:09,2023/5/8 10:09,2023/5/7 19:24,2023/5/7
500105055,YouBike2.0_,文山第二行政中心,30,12,文山區,2023/5/8 07:57,25.00115,121.55142,興隆路二段160-1號前,Wenshan Dist,YouBike2.0_Wenshan 2nd District Office,No. 160-1， Sec. 2， Xinglong Rd.,18,1,2023/5/8 10:09,2023/5/8 10:09,2023/5/8 07:57,2023/5/8
500105056,YouBike2.0_,移民署訓練中心,13,5,文山區,2023/5/7 21:01,24.99271,121.55865,興隆路三段306號,Wenshan Dist,YouBike2.0_National Immigration Agency Training Center,No. 306， Sec. 3， Xinglong Rd.,8,1,2023/5/8 10:09,2023/5/8 10:09,2023/5/7 21:01,2023/5/7
500105057,YouBike2.0_,海巡署(南側),10,6,文山區,2023/5/8 08:16,24.99472,121.55949,興隆路三段211號對側(公車亭後),Wenshan Dist,YouBike2.0_Coast Guard Administration (South),No. 211， Sec. 3， Xinglong Rd. (Opposite),4,1,2023/5/8 10:09,2023/5/8 10:09,2023/5/8 08:16,2023/5/8
500105058,YouBike2.0_,明道國小東南側,18,1,文山區,2023/5/7 18:30,24.98695,121.56456,興隆路四段109巷116號對側,Wenshan Dist,YouBike2.0_Ming Dao Elementary School (Southeast),No. 116， Ln. 109， Sec. 4， Muzha Rd.,17,1,2023/5/8 10:09,2023/5/8 10:09,2023/5/7 18:30,2023/5/7
500105059,YouBike2.0_,木南公園,12,1,文山區,2023/5/8 09:03,24.98662,121.57071,木新路二段永安街22巷口,Wenshan Dist,YouBike2.0_Mu Nan Park,Sec. 2， Muxin Rd. & Ln. 22， Yong'an St. Intersection,11,1,2023/5/8 10:09,2023/5/8 10:09,2023/5/8 09:03,2023/5/8
500105060,YouBike2.0_,實踐國中(木新路三段310巷口),17,1,文山區,2023/5/8 09:41,24.98339,121.55645,忠順街一段木新路三段310巷口,Wenshan Dist,YouBike2.0_Shijian Junior High School (Ln. 310， Sec. 3， Muxin Rd.),Sec. 1， Zhongshun St. & Ln. 310， Sec. 3， Muxin Rd. Intersection,16,1,2023/5/8 10:09,2023/5/8 10:09,2023/5/8 09:41,2023/5/8
500105061,YouBike2.0_,師範大學公館校區_1,25,3,文山區,2023/5/8 09:57,25.00753,121.53719,師大公館校區校門口(汀州路側),Wenshan Dist,YouBike2.0_National Taiwan Normal University Gongguan Campus_1,National Taiwan Normal University Gongguan Campus (Tingzhou Rd.),22,1,2023/5/8 10:09,2023/5/8 10:09,2023/5/8 09:57,2023/5/8
500105062,YouBike2.0_,捷運動物園站(2號出口),39,11,文山區,2023/5/8 00:34,24.99766,121.57875,新光路二段28號前,Wenshan Dist,YouBike2.0_MRT Taipei Zoo Sta. (Exit 2),No. 28， Sec. 2， Xinguang Rd.,28,1,2023/5/8 10:09,2023/5/8 10:09,2023/5/8 00:34,2023/5/8
500105063,YouBike2.0_,政大水岸電梯,10,7,文山區,2023/5/8 09:29,24.982,121.5717,政治大學水岸電梯旁,Wenshan Dist,YouBike2.0_Waterfront Elevator,NCCU College of Waterfront Elevator,3,1,2023/5/8 10:09,2023/5/8 10:09,2023/5/8 09:29,2023/5/8
500105064,YouBike2.0_,敦南山林,14,3,文山區,2023/5/7 12:24,25.00264,121.5768,木柵路四段159巷16弄(社區出入口對側),Wenshan Dist,YouBike2.0_Dunnan Forest,Aly. 16， Ln. 159， Sec. 4， Muzha Rd.,11,1,2023/5/8 10:09,2023/5/8 10:09,2023/5/7 12:24,2023/5/7
500105065,YouBike2.0_,辛亥路五段73巷口,13,3,文山區,2023/5/7 23:54,24.99811,121.55307,辛亥路五段75-1號前人行道,Wenshan Dist,YouBike2.0_Ln. 73， Sec. 5， Xinhai Rd.,No. 75-1， Sec. 5， Xinhai Rd.,10,1,2023/5/8 10:09,2023/5/8 10:09,2023/5/7 23:54,2023/5/7
500105066,YouBike2.0_,景美污水抽水站,15,1,文山區,2023/5/8 10:01,25.01076,121.53637,汀州路四段10號北側人行道,Wenshan Dist,YouBike2.0_Jingmei Pumping Station,No. 10， Sec. 4， Tingzhou Rd. (North),14,1,2023/5/8 10:09,2023/5/8 10:09,2023/5/8 10:01,2023/5/8
500105067,YouBike2.0_,萬和三號公園(北側),13,7,文山區,2023/5/8 09:40,25.00345,121.53636,溪洲街107巷(公園北側),Wenshan Dist,YouBike2.0_Wan He NO.3 Park,Ln. 107， Xizhou St.,6,1,2023/5/8 10:09,2023/5/8 10:09,2023/5/8 09:40,2023/5/8
500105068,YouBike2.0_,景興國中,10,5,文山區,2023/5/8 00:24,24.99609,121.54284,三福街4巷與景興路46巷口,Wenshan Dist,YouBike2.0_Jing Xing Junior High School,Ln. 4， Sanfu St. & Ln. 46， Jingxing Rd. Intersection,5,1,2023/5/8 10:09,2023/5/8 10:09,2023/5/8 00:24,2023/5/8
500105069,YouBike2.0_,景仁公園_1,15,1,文山區,2023/5/8 09:32,24.9966,121.5403,景仁街 / 羅斯福路六段142巷口(北側),Wenshan Dist,YouBike2.0_Jingren Park_1,Jingren St. & Ln. 142， Sec. 6， Roosevelt Rd. Intersection (North),14,1,2023/5/8 10:09,2023/5/8 10:09,2023/5/8 09:32,2023/5/8
500105070,YouBike2.0_,師大公館校區學二舍,40,14,文山區,2023/5/8 10:01,25.00825,121.53419,臺灣師範大學學二舍西側人行道,Wenshan Dist,YouBike2.0_NTNU Gongguan Campus (Student Dorm 2),NTNU Gongguan Campus (Student Dorm 2),26,1,2023/5/8 10:09,2023/5/8 10:09,2023/5/8 10:01,2023/5/8
500105071,YouBike2.0_,景行公園,15,1,文山區,2023/5/8 09:56,24.99279,121.54255,景中街與景中街30巷口,Wenshan Dist,YouBike2.0_Jing Sing Park,Jingzhong St. & Ln. 30， Jingzhong St. Intersection,14,1,2023/5/8 10:09,2023/5/8 10:09,2023/5/8 09:56,2023/5/8
500105072,YouBike2.0_,萬興國小,16,6,文山區,2023/5/8 00:26,24.98939,121.57682,秀明路二段114號公車亭旁,Wenshan Dist,YouBike2.0_WangXin Elementary School,No. 114， Sec. 2， Xiuming Rd.,10,1,2023/5/8 10:09,2023/5/8 10:09,2023/5/8 00:26,2023/5/8
500105073,YouBike2.0_,辛亥路四段77巷口,14,3,文山區,2023/5/8 09:16,25.00743,121.55877,辛亥路四段77巷口,Wenshan Dist,YouBike2.0_Ln. 77， Sec. 4， Xinhai Rd.,Ln. 77， Sec. 4， Xinhai Rd.,11,1,2023/5/8 10:09,2023/5/8 10:09,2023/5/8 09:16,2023/5/8
500105074,YouBike2.0_,景興路42巷口,12,5,文山區,2023/5/8 08:34,24.99696,121.54454,景興路42巷與景興路口西南側,Wenshan Dist,YouBike2.0_Ln. 42， Jingxing Rd.,Ln. 42， Jingxing Rd. & Jingxing Rd. Intersection (Southwest),7,1,2023/5/8 10:09,2023/5/8 10:09,2023/5/8 08:34,2023/5/8
500105075,YouBike2.0_,木柵路三段48巷,15,4,文山區,2023/5/7 23:56,24.98768,121.56565,木柵路三段48巷1弄口,Wenshan Dist,YouBike2.0_Ln. 48， Sec. 3， Muzha Rd.,Aly. 1， Ln. 48， Sec. 3， Muzha Rd.,11,1,2023/5/8 10:09,2023/5/8 10:09,2023/5/7 23:56,2023/5/7
500105076,YouBike2.0_,木柵路二段109巷,15,7,文山區,2023/5/8 04:53,24.98944,121.56195,木柵路二段109巷14號旁,Wenshan Dist,YouBike2.0_Ln. 109， Sec. 2， Muzha Rd.,No. 14， Ln. 109， Sec. 2， Muzha Rd.,8,1,2023/5/8 10:09,2023/5/8 10:09,2023/5/8 04:53,2023/5/8
500105077,YouBike2.0_,試院公園,15,4,文山區,2023/5/8 09:35,24.98808,121.54723,木柵路一段59巷29號對側,Wenshan Dist,YouBike2.0_Shih Yuan Park,No. 29， Ln. 59， Sec. 1， Muzha Rd. (Opposite),11,1,2023/5/8 10:09,2023/5/8 10:09,2023/5/8 09:35,2023/5/8
500105080,YouBike2.0_,萬美萬安街口,16,3,文山區,2023/5/7 20:25,25.00223,121.57039,萬美街一段/萬安街口,Wenshan Dist,YouBike2.0_Wanmei St. & Wan'an St. Intersection,Sec. 1， Wanmei St. & Wan'an St. Intersection,13,1,2023/5/8 10:09,2023/5/8 10:09,2023/5/7 20:25,2023/5/7
500105081,YouBike2.0_,興隆路二段203巷(敦南),27,8,文山區,2023/5/8 07:18,25.00198,121.54856,興隆路二段203巷16號,Wenshan Dist,YouBike2.0_Ln. 203， Sec. 2， Xinglong Rd. (Dunnan),No. 16， Ln. 203， Sec. 2， Xinglong Rd.,19,1,2023/5/8 10:09,2023/5/8 10:09,2023/5/8 07:18,2023/5/8
500105082,YouBike2.0_,新光秀明路口,15,10,文山區,2023/5/8 07:02,24.99197,121.57371,新光路一段145號前,Wenshan Dist,YouBike2.0_Xinguang Rd. & Xiuming Rd. Intersection,No. 145， Sec. 1， Xinguang Rd.,5,1,2023/5/8 10:09,2023/5/8 10:09,2023/5/8 07:02,2023/5/8
500106001,YouBike2.0_,臺北自來水事業處,20,9,中正區,2023/5/8 09:50,25.013741,121.53068,思源街1號東側,Zhongzheng Dist,YouBike2.0_Taipei Water Department,No.1， Siyuan St. (East),11,1,2023/5/8 10:09,2023/5/8 10:09,2023/5/8 09:50,2023/5/8
